Name,NAICSCode,Phone,WebAddress,Address,PostalCode,BldgNo,UnitNo,Latitude,Longitude
Rena Cuisine Inc.,722512,416-479-0852,,2708 Rena Rd,L4T 3J9,,,43.70978,-79.66239
A&W,722512,647-479-7881,www.aw.ca,1465 Aerowood Dr,L4W 1C2,,,43.64385,-79.63348
California Sandwiches,722512,905-564-3440,www.eatcalifornia.ca,5950 Dixie Rd,L4W 1E9,,,43.654313,-79.646306
Hilton Toronto Airport Hotel and Suites,721111,905-677-9900,www.toronto-apt.hilton.com,5875 Airport Rd,L4V 1N1,,,43.68598,-79.606999
"Mission Eatery, The",722512,416-648-4689,www.themissioneatery.com,5915 Airport Rd,L4V 1T1,,UnitNo 100,43.685912,-79.608963
HMS Host Corporation,722310,416-776-3100,www.hmshost.com,5945 Airport Rd,L4V 1R9,,UnitNo 174,43.686061,-79.610421
De Maple Lounge Restaurant,722512,905-678-1400,www.fourpoint.com/Torontoairport.com,6257 Airport Rd,L4V 1E4,,,43.689508,-79.622027
Comfort Inn,721114,905-677-7331,www.choicehotels.ca/cn568,6355 Airport Rd,L4V 1E4,,,43.690997,-79.625202
Pizza Way,722512,905-956-2340,www.jeypizzawayrestaurant.ca,6355 Airport Rd,L4V 1E4,,,43.690997,-79.625202
Pearson's Pub Sports Bar,722511,,,6355 Airport Rd,L4V 1E4,,,43.690997,-79.625202
Zet's Restaurant,722511,905-678-1114,www.zets.ca,6445 Airport Rd,L4V 1E4,,,43.692797,-79.627627
Nü,721111,905-612-1119,www.nuhoteltoronto.com,6465 Airport Rd,L4V 1E4,,UnitNo 102,43.6931,-79.628032
Northwest Coffee Shop,722512,905-672-1774,,6725 Airport Rd,L4V 1V2,,,43.69827,-79.635
Tim Horton's,722512,905-678-6298,www.timhortons.ca,6767 Airport Rd,L4V 1E6,,,43.699279,-79.636359
Malton Sweets & Samosa Factory,722512,905-673-2136,,7052 Airport Rd,L4T 2G8,,UnitNo B,43.704618,-79.643648
China Garden Restaurant,722511,905-678-1678,,7071 Airport Rd,L4T 4J3,,UnitNo 1,43.70518,-79.64257
Mughal Mahal Indian Cuisine,722512,905-678-6666,,7071 Airport Rd,L4T 4J3,,UnitNo 11,43.70518,-79.64257
Lovely Sweets Restaurant,722512,905-673-6677,,7072 Airport Rd,L4T 2G8,,,43.70526,-79.644278
Chat Hut,722512,905-672-2428,www.chathut.ca,7106 Airport Rd,L4T 2G8,,,43.706059,-79.645539
Sweet India Restaurant,722512,905-673-0041,www.sweetindia.com,7126 Airport Rd,L4T 2H1,,,43.706231,-79.645819
Asian Sweets & Restaurant,722512,905-671-2923,,7148 Airport Rd,L4T 2H1,,,43.706529,-79.646226
Airport Bukhara,722511,905-678-7889,www.airportbukhara.com,7166 Airport Rd,L4T 2H2,,,43.707081,-79.646986
Lykn Chicken,722512,905-676-8181,www.lyknchicken.com,7460 Airport Rd,L4T 2H5,,UnitNo A,43.713051,-79.655095
Quiznos Sub,722512,905-908-2370,,7460 Airport Rd,L4T 2H5,,UnitNo B,43.713051,-79.655095
Tim Horton's,722512,905-677-6330,www.timhortons.com,7480 Airport Rd,L4T 2H5,,,43.71328,-79.655403
J M V Food Service Canada Ltd.,722310,905-629-1208,www.torriecoffee.com,5594 Ambler Dr,L4W 2K9,,,43.64402,-79.63911
Quality Inn & Suites,721111,905-238-3500,www.choicehotels.ca/cn516,5585 Ambler Dr,L4W 3Z1,,,43.64563,-79.63839
Caribbean Sunset Restaurant,722511,905-564-7800,,1001 Meyerside Dr,L5T 1J6,,UnitNo 8&9,43.65148,-79.665
Skymark Deli,722512,905-363-1081,www.skymarkdeli.com,2000 Argentia Rd,L5N 1P7,Plaza 2,UnitNo 103,43.599211,-79.7423
Affy's Premium Grill,722511,905-997-7774,,2283 Argentia Rd,L5N 5Z2,,UnitNo 9A,43.59869,-79.74775
Four Points by Sheraton Mississauga Meadowvale,721111,905-858-2424,www.fourpointsmeadowvale.com,2501 Argentia Rd,L5N 4G8,,,43.600939,-79.755807
Cafe Atlantis,722410,905-670-6600,,5745 Atlantic Dr,L4W 1H3,,,43.654265,-79.636169
China China Palace,722512,905-897-7888,www.chinachinapalace.com,1125 Bloor St,L4Y 2N6,,UnitNo 8A,43.610972,-79.600067
2-4-1 Pizza,722512,905-897-2320,www.241pizza.com,1125 Bloor St,L4Y 2N6,,UnitNo 17,43.610972,-79.600067
Fred's Bar & Grill,722512,905-279-0097,www.fredsbarandgrill.ca,636 Bloor St,L5A 3V9,,,43.599403,-79.612019
All Serbian Saints Serbian Centre,722320,905-272-5944,www.sabornik.com,1375 Blundell Rd,L4Y 1M6,,,43.607431,-79.58188
Sushijun Express,722512,905-670-5550,www.sushijunexpress.com,1415 Bonhill Rd,L5T 1L3,,UnitNo 19,43.660398,-79.651133
Ashley Bay Corporate Catering,722310,,www.ashleybaycatering.com,1640 Bonhill Rd,L5T 1C8,,UnitNo 6,43.66477,-79.65255
Europa Convention Centre,722320,905-677-9100,www.europaconventioncentre.com,7050 Bramalea Rd,L5S 1S9,Bldg B,UnitNo 39 to 41,43.68477,-79.66522
Joe's Restaurant,722512,905-673-6999,,7050 Bramalea Rd,L5S 1T1,Bldg A,UnitNo 31,43.68521,-79.664088
Tandoori Mirchi,722512,905-672-2220,www.tandoorimirchis.com,7305 Bramalea Rd,L5S 1W4,,UnitNo 6,43.691007,-79.671809
Tim Horton's,722512,905-678-0151,www.qsrgroup.ca,5869 Airport Rd,L4V 1C9,,,43.68638,-79.60755
Columbus Bakery,722511,905-890-6006,,40 Bristol Rd E,L4Z 3K8,,UnitNo 2,43.61385,-79.66202
Subway,722512,905-890-9133,www.subway.com,40 Bristol Rd E,L4Z 3K8,,UnitNo 3,43.61385,-79.66202
McDonald's,722512,905-568-8628,www.mcdonalds.ca,44 Bristol Rd E,L4Z 3K8,,,43.61543,-79.66107
Subway,722512,905-813-0511,www.subway.com,1525 Bristol Rd W,L5M 4Z1,,UnitNo 10,43.58612,-79.69855
Pizza Hut,722512,905-542-8100,www.pizzahut.ca,1525 Bristol Rd W,L5M 4Z1,,UnitNo 1,43.58612,-79.69855
"Bristol Bar & Grill, The",722511,905-890-2500,www.bristolbar.ca,512 Bristol Rd W,L5R 3Z1,,UnitNo 13 to 15,43.60239,-79.6717
Holiday Inn - Mississauga Toronto West,721111,905-890-5700,www.hitorontowest.ca,100 Britannia Rd E,L4Z 2G1,,,43.628308,-79.677278
Fuzion Banquets,722320,905-564-1122,www.fuziongroup.ca,1300 Britannia Rd E,L4W 1C8,,UnitNo 1,43.65155,-79.6514
Kalypso Hut,722512,905-790-2202,www.kalypsohut.com,1455 Britannia Rd E,L4W 1C7,,UnitNo 1,43.65466,-79.64912
Sami's Kitchen,722512,905-670-7565,www.samiscafe.ca,1801 Britannia Rd E,L4W 1S6,,UnitNo 1,43.66218,-79.641
Wendy's,722512,905-712-4312,www.wendys.com,44 Britannia Rd E,L4Z 3W7,,,43.626638,-79.679054
Tim Horton's,722512,905-890-5239,www.timhortons.com,44 Britannia Rd E,L4Z 3W7,,,43.626638,-79.679054
Quality Inn Airport West,721111,905-890-1200,www.qualityinnairportwest.com,50 Britannia Rd E,L4Z 2G2,,,43.627223,-79.678494
New Super Choice Pizza,722512,905-567-7575,www.newsuperchoicepizza.com,1201 Britannia Rd W,L5V 1N2,,UnitNo 9,43.602762,-79.706293
New India Sweets and Restaurant,722511,905-814-1730,www.newindiasweetsrestaurant.com,1201 Britannia Rd W,L5V 1N2,,UnitNo 17,43.602762,-79.706293
San Francesco Foods,722512,905-858-4445,,1201 Britannia Rd W,L5V 1N2,,UnitNo 6&7,43.602762,-79.706293
Yorkshire Arms British Pub,722512,905-286-9799,,1201 Britannia Rd W,L5V 1N2,,UnitNo 1,43.602762,-79.706293
Thai Rice,722512,905-821-8999,www.thairice.ca,1201 Britannia Rd W,L5V 1N2,,UnitNo 2,43.602762,-79.706293
Insushi Japanese & Korean,722511,905-567-7890,www.sushiinsushi.ca,2310 Battleford Rd,L5N 3K6,,UnitNo 5,43.58547,-79.74055
Pane E Vino Ristorante,722512,905-502-5656,www.pane-vino.ca,151 Brunel Rd,L4Z 2H6,,UnitNo 14&15,43.628126,-79.673091
Mississauga Grand Banquet & Convention Centre,722320,905-501-0043,www.mississaugagrand.com,35 Brunel Rd,L4Z 3E8,,UnitNo 6&7,43.625807,-79.676101
Salt & Pepper Hakka Style Chinese Cuisine,722511,905-568-9900,www.saltpeppermississauga.com,35 Brunel Rd,L4Z 3E8,,UnitNo 4A & 4B,43.625807,-79.676101
Nirvana the Flavours of India,722511,905-501-5500,www.nirvanatheflavoursofindia.com,35 Brunel Rd,L4Z 3E8,,UnitNo 5,43.625807,-79.676101
Subway,722512,905-501-0781,www.subway.com,35 Brunel Rd,L4Z 3E8,,UnitNo 1,43.625807,-79.676101
El Sombrero Food Company,722511,905-502-0011,www.elsombrero.ca,35 Brunel Rd,L4Z 3E8,,UnitNo 1A,43.625807,-79.676101
Shanghai House Chinese Restaurant,722511,905-270-1906,,1014 Burnhamthorpe Rd E,L4Y 2X6,,,43.614663,-79.611145
Applewood Fish & Chips,722512,905-277-4045,,1020 Burnhamthorpe Rd E,L4Y 2X6,,,43.614663,-79.611145
McDonald's (Nadeau Foods Inc.),722512,905-270-9614,,377 Burnhamthorpe Rd E,L5A 3Y1,,UnitNo 17,43.601814,-79.625545
"Great Wok of China, The",722511,905-276-7665,www.thegreatwokofchina.com,377 Burnhamthorpe Rd E,L5A 3Y1,,UnitNo 3,43.601814,-79.625545
Subway,722512,905-897-0648,www.subway.com,1100 Burnhamthorpe Rd W,L5C 4G4,,UnitNo 11B,43.570163,-79.662094
Mongolian Hot Pot,722511,905-232-7775,,1100 Burnhamthorpe Rd W,L5C 4G4,,,43.570163,-79.662094
Tim Horton's,722512,905-897-7677,,1170 Burnhamthorpe Rd W,L5C 4E6,,,43.568897,-79.663568
Swiss Chalet,722511,905-270-1229,www.swisschalet.ca,1170 Burnhamthorpe Rd W,L5C 4E6,,UnitNo 12 to 14,43.568897,-79.663568
Asian Gourmet,722512,905-607-3799,,2150 Burnhamthorpe Rd W,L5L 3A2,Bldg K,UnitNo H12,43.545319,-79.684671
Subway,722512,905-828-8782,www.subway.com,2150 Burnhamthorpe Rd W,L5L 3A2,Bldg K,UnitNo H24,43.545319,-79.684671
Alioli Ristorante CafW,722511,905-281-1122,www.alioliristorante.com,350 Burnhamthorpe Rd W,L5B 3J1,,UnitNo 123,43.58547,-79.64386
Anjappar South Indian Cuisine,722511,905-272-2232,www.anjappercanada.com,4310 Sherwoodtowne Blvd,L4Z 4C4,,UnitNo 1,43.59964,-79.64208
Select Sandwich Corp,722512,905-566-1400,www.selectsandwich.com,50 Burnhamthorpe Rd W,L5B 3C2,,UnitNo 336,43.59197,-79.63579
Noodle Wok,722511,905-896-8915,,600 Burnhamthorpe Rd W,L5B 2C4,,UnitNo 6,43.58057,-79.64937
Dunk'n Dip,722512,905-990-5522,www.dunkndip.ca,600 Burnhamthorpe Rd W,L5B 2C4,,UnitNo 4,43.58057,-79.64937
The Captain's Boil,722511,905-232-8181,www.thecaptainsboil.com,720 Burnhamthorpe Rd W,L5C 3G1,Bldg 1,UnitNo 3A,43.578511,-79.652538
Burger King,722512,905-281-0932,www.burgerking.ca,769 Burnhamthorpe Rd W,L5C 3A6,,,43.578296,-79.65305
Old Mill Pastry,722512,905-232-5246,www.oldmillpastry.com,780 Burnhamthorpe Rd W,L5C 3X3,,UnitNo 12,43.578467,-79.652588
Cooper's Pub,722511,905-275-3245,www.cooperspub.ca,780 Burnhamthorpe Rd W,L5C 3X3,,UnitNo 5,43.578467,-79.652588
Macey's Restaurant,722511,,,780 Burnhamthorpe Rd W,L5C 3X3,,UnitNo 2B,43.578467,-79.652588
Red Lobster Canada,722511,905-848-8477,www.redlobster.com,790 Burnhamthorpe Rd W,L5C 3X3,,,43.577016,-79.654252
Coco Cafa Inc.,722512,905-275-2425,,90 Burnhamthorpe Rd W,L5B 3C3,,UnitNo 204,43.59128,-79.63657
Kentucky Fried Chicken,722512,905-896-8494,,896 Burnhamthorpe Rd W,L5C 2S3,,UnitNo 5,43.57443,-79.65669
Red Spoon,722511,905-564-0333,www.redspoon.ca,1076 Cardiff Blvd,L5S 1M4,,UnitNo 2-3B,43.670151,-79.686999
Sam's Pita & Grill,722512,905-564-2136,www.sampita.ca,1380 Cardiff Blvd,L5S 1P9,,UnitNo 10,43.672011,-79.678658
Hampton Inn & Suites,721111,905-671-4730,www.torontoairportontario.hamptoninn.com,3279 Caroga Dr,L4V 1A3,,,43.688648,-79.607457
Hilton Garden Inn,721111,905-678-0041,www.torontoairport.hgi.com,3311 Caroga Dr,L4V 1A3,,,43.689538,-79.606469
Tim Horton's,722512,905-566-1139,www.timsown.com,2427 Cawthra Rd,L5A 2W7,,,43.591459,-79.595325
Rei do Churrasco,722512,905-949-5141,www.reidochurrasco.ca,2480 Cawthra Rd,L5A 2X2,,UnitNo 7,43.59214,-79.596518
Marconi Pizza,722512,905-279-0151,www.marconipizza.com,3635 Cawthra Rd,L5A 2Y5,,UnitNo 13&14,43.607119,-79.617708
Tasty Kitchen Inc.,722511,905-803-8882,,1177 Central Pky W,L5C 4P3,,UnitNo 12,43.567051,-79.66125
Lion City Restaurant,722511,905-281-0860,www.lioncityrestaurant.ca,1177 Central Pky W,L5C 4P3,,UnitNo 70,43.567051,-79.66125
Golden Moon,722512,905-273-7666,,1177 Central Pky W,L5C 4P3,,UnitNo 5,43.567051,-79.66125
Guilin Cuisine,722511,905-268-0938,,1177 Central Pky W,L5C 4P3,,UnitNo 9,43.567051,-79.66125
Red Lotus Restaurant,722511,,www.manjianghong.ca,1177 Central Pky W,L5C 4P3,,UnitNo 11,43.567051,-79.66125
Kung Fu Duck,722511,647-975-1088,,1177 Central Pky W,L5C 4P3,,UnitNo 56-57,43.567051,-79.66125
Roman Zaman,722511,905-276-0101,www.romanzaman.com,325 Central Pky W,L5B 3X9,Bldg 2,UnitNo 8,43.582462,-79.637382
Pizzaville,722512,905-306-7815,www.pizzaville.ca,325 Central Pky W,L5B 3X9,Bldg 3,UnitNo 56,43.582462,-79.637382
Pizza Pros,722512,905-712-8360,www.pizzapros.ca,223 Ceremonial Dr,L5R 2N3,,UnitNo 8,43.604986,-79.662652
Tap & Pour,722511,416-776-2658,,3 PIA,L5P 1B2,,,43.586162,-79.646215
Cultures,722512,905-232-7774,,100 City Centre Dr,L5B 2C9,,UnitNo O9,43.59333,-79.64223
Basil Box,722512,905-277-3000,,100 City Centre Dr,L5B 2C9,,UnitNo Q9,43.59333,-79.64223
Subway,722512,905-232-4782,www.subway.com,100 City Centre Dr,L5B 2C9,,UnitNo Q9,43.59333,-79.64223
Orange Julius/Dairy Queen,722512,905-275-7651,www.dairyqueen.com,100 City Centre Dr,L5B 2C9,,UnitNo Q10,43.59333,-79.64223
McCafe,722512,905-270-9300,,100 City Centre Dr,L5B 2C9,,UnitNo F12,43.59333,-79.64223
Second Cup,722512,905-279-0069,,100 City Centre Dr,L5B 2C9,,UnitNo E6,43.59333,-79.64223
Real Fruit Bubble Tea,722512,,www.realfruitbubbletea.com,100 City Centre Dr,L5B 2C9,,UnitNo E10,43.59333,-79.64223
Villa Madina,722512,905-276-3866,www.villamadina.com,100 City Centre Dr,L5B 2C9,,UnitNo Q9,43.59333,-79.64223
Charley's Philly Steaks,722512,905-272-2123,,100 City Centre Dr,L5B 2C9,,UnitNo Q9,43.59333,-79.64223
A & W,722512,647-479-8058,www.aw.ca.dhg@gmail.com,100 City Centre Dr,L5B 2C9,,UnitNo Q9,43.59333,-79.64223
Taco Bell,722512,905-896-9600,,100 City Centre Dr,L5B 2C9,,UnitNo Q8,43.59333,-79.64223
Freshly Squeezed,722512,905-695-2614,www.freshlysqueezed.ca,100 City Centre Dr,L5B 2C9,,UnitNo Q11,43.59333,-79.64223
Manchu Wok,722512,905-273-3100,www.manchuwok.ca,100 City Centre Dr,L5B 2C9,,UnitNo Q9,43.59333,-79.64223
Roolys Food Company Ltd. (Jimmy the Greek),722512,905-566-1656,www.jimmythegreek.com,100 City Centre Dr,L5B 2C9,,UnitNo 1-137,43.59333,-79.64223
Szechuan Express,722512,905-232-3383,www.szechuanszechuan.com,100 City Centre Dr,L5B 2C9,,UnitNo P9,43.59333,-79.64223
Cinnabon,722512,905-281-8250,www.cinnabon.com,100 City Centre Dr,L5B 2C9,,UnitNo P9,43.59333,-79.64223
New York Fries,722512,905-273-4258,www.newyorkfries.com,100 City Centre Dr,L5B 2C9,,UnitNo P10,43.59333,-79.64223
Big Smoke Burger,722512,905-277-2447,,100 City Centre Dr,L5B 2C9,,UnitNo O10,43.59333,-79.64223
Tim Hortons,722512,905-896-4207,www.timhortons.com,100 City Centre Dr,L5B 2C9,,"UnitNo N7, P12",43.59333,-79.64223
Tim Horton's,722512,905-306-0033,www.timhortons.com,151 City Centre Dr,L5B 1M7,,UnitNo 100,43.591071,-79.640439
Failte Irish Pub,722410,905-276-2212,www.failteirishpub.ca,201 City Centre Dr,L5B 2T4,,UnitNo 109,43.589693,-79.642039
Gateway On The Go,722512,,,201 City Centre Dr,L5B 4E4,,UnitNo 106,43.589693,-79.642039
Gateway Cafe,722512,905-566-5767,,33 City Centre Dr,L5B 2N5,,UnitNo 147,43.594477,-79.639496
The Host,722511,905-566-4678,www.welcometohost.com,33 City Centre Dr,L5B 2N5,,UnitNo 101,43.594477,-79.639496
Caf,722512,905-270-2233,,55 City Centre Dr,L5B 1M3,,UnitNo Lobby,43.593634,-79.638821
Doolin's Restaurant and Pub,722511,905-822-8265,,1575 Clarkson Rd N,L5J 2X1,,UnitNo 8,43.528256,-79.638871
Papa's Place,722511,905-564-0895,,6731 Columbus Rd,L5T 2M4,,UnitNo 1A,43.665495,-79.670463
Falafel Al-Tarboosh Lebanese Restaurant,722511,905-949-0222,,3050 Confederation Pky,L5B 3Z6,,UnitNo 105,43.5778,-79.62133
Tim Horton's,722512,905-564-9994,www.timhortons.com,475 Courtneypark Dr E,L5T 2V3,,,43.647465,-79.684815
Breakfasting,722512,905-232-7888,,4040 Creditview Rd,L5C 4E3,,UnitNo 21,43.568939,-79.665376
Phoenix Chinese Restaurant,722511,905-848-8222,,4040 Creditview Rd,L5C 4E3,,UnitNo 6&7,43.568939,-79.665376
Tomo Sushi,722511,905-306-9060,www.tomosushi.ca,4040 Creditview Rd,L5C 4E3,,UnitNo 1&2,43.568939,-79.665376
Chinese Dumpling House,722511,905-270-5988,,4040 Creditview Rd,L5C 4E3,,UnitNo 9&10,43.568939,-79.665376
Chilli Chicken House,722511,905-232-1199,,4040 Creditview Rd,L5C 4E3,,UnitNo 25,43.568939,-79.665376
Tim Hortons,722512,905-858-4040,www.timhortons.com,6075 Creditview Rd,L5V 2A8,,,43.598228,-79.712893
Lazeez Shawarma,722511,905-363-1818,www.lazeezshawarma.com,6085 Creditview Rd,L5V 2A8,,UnitNo 2B,43.598695,-79.713536
Paramount Fine Foods,722512,905-282-1600,www.paramountfinefoods.com,1290 Crestlawn Dr,L4W 1A6,,,43.632034,-79.62043
Il Porcellino Italian Restaurant,722511,905-696-9755,www.ilporcellino.com,6720 Davand Dr,L5T 2K7,,UnitNo 1&2,43.66772,-79.66802
Bahar Kabob,722512,905-670-0330,www.baharkabob.com,6740 Davand Dr,L5T 2K9,,UnitNo 8,43.66873,-79.66958
Veggie Planet,722512,905-795-7950,www.veggieplanet.ca,6985 Davand Dr,L5T 1Y7,,UnitNo 1,43.672061,-79.674739
Olympia Grill,722511,905-564-7250,,1 Derry Rd E,L5T 2Z8,,,43.64714,-79.70624
Olive Tree Deli Cafe,722512,905-565-8333,www.olivetreedelicafe.com,1107 Derry Rd E,L5T 1P3,,,43.667997,-79.682255
Pho Pho Pho,722511,905-461-1717,,1135 Derry Rd E,L5T 1P3,,,43.668548,-79.68163
Subway,722512,905-678-8822,www.subway.com,2855 Derry Rd E,L4T 1A6,,UnitNo 1,43.702186,-79.644404
Chopstick Cuisine,722511,905-672-8225,,2875 Derry Rd E,L4T 1A6,Bldg 1,,43.702727,-79.643694
Standard Sweets & Snacks,722512,905-612-8381,www.standardsweets.com,2877 Derry Rd E,L4T 1A6,Bldg 1,,43.702755,-79.643656
Pizzaville,722512,905-677-1904,www.pizzaville.ca,2889 Derry Rd E,L4T 1A6,Bldg 1,,43.702938,-79.643419
China Sea Chinese Food,722512,905-678-1012,,2897 Derry Rd E,L4T 1A6,Bldg 2,,43.703014,-79.643323
Pizza Nova,722512,905-672-5867,www.pizzanova.com,3417 Derry Rd E,L4T 1A8,Bldg 1,UnitNo 1,43.712927,-79.632612
Mr. Jerk - 886380 Ontario Ltd.,722512,905-673-5627,,3417 Derry Rd E,L4T 1A8,Bldg 1,UnitNo 5,43.712927,-79.632612
Mr. Sub,722512,905-673-2533,www.mrsub.ca,3417 Derry Rd E,L4T 1A8,Bldg 1,UnitNo 2,43.712927,-79.632612
"Kebob, The",722511,905-678-2324,www.thekabob.com,3417 Derry Rd E,L4T 1A8,Bldg 1,UnitNo 7&8,43.712927,-79.632612
Yumys Chicken,722511,905-671-1113,www.yumys.ca,3417 Derry Rd E,L4T 1A8,Bldg 1,UnitNo 3,43.712927,-79.632612
China Palace,722511,905-405-1118,www.china-palace.ca,3530 Derry Rd E,L4T 4E3,,UnitNo 12,43.714465,-79.630615
Verdi Convention Centre Inc.,722320,416-675-6756,www.verdi.ca,3550 Derry Rd E,L4T 3V7,,,43.715135,-79.629718
Wendy's Canada,722512,905-671-4901,www.wendys.ca,3650 Derry Rd E,L4T 3V7,,UnitNo 100,43.715661,-79.628725
Tim Hortons,722512,905-678-1468,www.timhortons.com,3650 Derry Rd E,L4T 3V7,,UnitNo 104,43.715661,-79.628725
Tim Horton's,722512,905-564-5090,www.timhorton.ca,480 Derry Rd E,L5T 2P3,,,43.655461,-79.695595
Symphony Banquet Hall,722320,905-564-0244,www.symphonyeventcenter.ca,959 Derry Rd E,L5T 2J7,,,43.66498,-79.6858
Teamsters Local Union 647,722310,905-760-0209,www.teamsters647.ca,979 Derry Rd E,L5T 2J7,,,43.665,-79.68728
Pizza Pizza,722512,905-826-3666,www.pizzapizza.ca,2760 Derry Rd W,L5N 3N5,,UnitNo 11,43.593428,-79.765274
"Keystone Pub, The",722410,905-858-2124,www.thekeystonepub.com,2760 Derry Rd W,L5N 3N5,,UnitNo 8,43.593428,-79.765274
Pho Ao Sen Vietnamese Cuisine,722512,905-824-2888,www.phoaosenmississauga.com,3221 Derry Rd W,L5N 7L7,,UnitNo 22,43.582762,-79.777653
Osmows,722512,905-824-4555,,3221 Derry Rd W,L5N 7L7,,UnitNo 8,43.582762,-79.777653
Gino's Pizza,722512,905-785-0344,www.ginospizza.ca,3221 Derry Rd W,L5N 7L7,,UnitNo 7,43.582762,-79.777653
Burger King,722512,905-274-1607,www.burgerking.ca,1490 Dixie Rd,L5E 3E5,,,43.594126,-79.564938
Zagloba Restaurant,722512,905-279-9925,www.zaglobarestaurant.ca,2555 Dixie Rd,L4Y 4C4,,UnitNo 5,43.60822,-79.58165
Banh Mi Tan Dinh,722512,905-624-9099,,3415 Dixie Rd,L4Y 4J6,,UnitNo 19,43.61806,-79.59507
Arkady Caf  & Restaurant,722511,905-624-5726,,3631 Dixie Rd,L4Y 4H2,Bldg 3,UnitNo 21,43.621713,-79.601364
Chuck E Cheese's Inc.,722512,905-602-5502,www.chuckecheese.com,4141 Dixie Rd,L4W 1V5,,UnitNo 4,43.624945,-79.6057
Burger King,722512,905-624-1664,www.burgerking.ca,4141 Dixie Rd,L4W 1V5,,UnitNo 228,43.624945,-79.6057
Subway,722512,905-238-5373,www.subway.com,4141 Dixie Rd,L4W 1V5,,UnitNo 9,43.624945,-79.6057
Ming Wok,722512,905-629-8568,,4141 Dixie Rd,L4W 1V5,,UnitNo FC,43.624945,-79.6057
Bamiyan Kabob,722512,905-268-0848,www.bamiyankabob.ca,5120 Dixie Rd,L4W 4J7,Bldg 1,UnitNo 8,43.63672,-79.62332
Kara Mia,722511,905-290-1190,www.karamia.ca,5120 Dixie Rd,L4W 4J7,Bldg 1,UnitNo 4,43.63672,-79.62332
Gospel Caf  & Restaurant,722512,905-282-9007,www.thegospelcafe.ca,5120 Dixie Rd,L4W 4J7,Bldg 1,UnitNo 9&10,43.63672,-79.62332
Mazaya,722512,905-232-0119,,5130 Dixie Rd,L4W 4K2,Bldg 2,UnitNo 6,43.63674,-79.62335
Pizzaiolo,722512,905-282-1000,,5130 Dixie Rd,L4W 4K2,Bldg 2,UnitNo 4,43.63674,-79.62335
Shawarma Shisha-licious,722512,905-232-0105,,5130 Dixie Rd,L4W 4K2,Bldg 2,UnitNo 1&2,43.63674,-79.62335
17 Steakhouse and Bar,722511,905-614-1701,www.17steakhouse.com,5165 Dixie Rd,L4W 4G1,,UnitNo 4,43.639073,-79.625199
Royal Jasmine,722511,905-602-1688,,5165 Dixie Rd,L4W 4G1,,UnitNo 3,43.639073,-79.625199
Swiss Chalet,722511,905-238-0798,,5165 Dixie Rd,L4W 4G1,,UnitNo 2,43.639073,-79.625199
Denny's,722512,905-282-8222,www.dennys.ca,5400 Dixie Rd,L4W 4T4,,,43.642972,-79.630849
Sandman Signature Hotel,721111,905-238-0159,www.sandman.ca,5400 Dixie Rd,L4W 4T4,,,43.642972,-79.630849
Eggsmart,722512,905-212-9920,www.eggsmartdixie.com,5170 Dixie Rd,L4W 1E3,,UnitNo 103,43.639132,-79.625567
Mucho Burrito - Admiral Enterprises Inc.,722512,905-614-1494,www.muchoburrito.com,5170 Dixie Rd,L4W 1E3,,UnitNo 104 A,43.639132,-79.625567
Best Western Plus Toronto Airport Hotel,721111,905-670-8180,www.bestwestern.com,5825 Dixie Rd,L4W 4V7,,,43.65162,-79.642394
Subway Sandwiches,722512,905-564-7827,www.subway.com,5835 Dixie Rd,L4W 4V7,,UnitNo 4,43.651882,-79.642754
Ambrosia Mediterranean & Lebanese Cuisine,722511,905-670-4744,,5835 Dixie Rd,L4W 4V7,,UnitNo 2,43.651882,-79.642754
Master Steaks Family Restaurant & Butcher Shop/Angie's Bar,722511,905-670-3313,www.mastersteaks .com,5895 Dixie Rd,L4W 1E8,,,43.653239,-79.644613
Maz Maz Shawarma,722511,905-461-9227,www.mazmaz.ca,5945 Dixie Rd,L4W 1E8,,UnitNo 2,43.654349,-79.64609
Super Mack,722512,905-670-1919,,5960 Dixie Rd,L4W 1E9,,,43.654467,-79.646512
Mr. Sub,722512,905-670-0592,www.mrsub.ca,5977 Dixie Rd,L4W 1E8,,UnitNo 2,43.654903,-79.646822
Four Points by Sheraton Toronto Mississauga,721111,905-670-0050,www.fourpoints.com/mississauga,6090 Dixie Rd,L5T 1A6,,,43.657006,-79.649936
Subway,722512,905-564-2235,www.subway.ca,6200 Dixie Rd,L5T 2E1,,UnitNo 104,43.658915,-79.65251
Scarlet House Food Group Inc.,722320,905-672-6302,www.scarletthouse.ca,7615 Kimbel Str,L5S 1A8,,UnitNo 8,43.697812,-79.666709
Capitol Banquet Centre,722320,905-670-0635,www.capitolbanquet.com,6435 Dixie Rd,L5T 1X4,,UnitNo 22 to 29,43.663701,-79.658696
"Flavours, The",722512,416-315-9000,www.theflavours.ca,6435 Dixie Rd,L5T 1X4,,UnitNo 8,43.663701,-79.658696
"Grand Taj Banquet & Convention Centre, The",722320,905-670-8313,www.thegrandtaj.com,6915 Dixie Rd,L5T 2G2,,UnitNo 18 to 22,43.674408,-79.673102
White Knight Motel,721111,905-564-8001,,6965 Dixie Rd,L5T 1A8,,,43.674405,-79.673098
Havelly Grill,722512,905-212-1213,www.havellygrill.com,1510 Drew Rd,L5S 1W7,,UnitNo 2,43.681849,-79.681406
Lucky Luciano's Italian & Portuguese Eatery,722511,905-672-5252,,1510 Drew Rd,L5S 1W7,,UnitNo 1,43.681849,-79.681406
Mia Italian Restaurant,722511,905-673-7622,,1885 Drew Rd,L5S 1J5,,UnitNo 2&3,43.68874,-79.67238
"Grecian Place, The",722511,905-677-7884,www.thegrecianplace.ca,1935 Drew Rd,L5S 1M5,,UnitNo 8 to 10,43.689047,-79.670677
Jung Thai Restaurant,722511,905-277-2502,,105 Dundas St E,L5A 1W7,,,43.582697,-79.613598
McDonald's,722512,905-270-9614,www.mcdonalds.ca,1050 Dundas St E,L4Y 2B8,,,43.602206,-79.591758
Avenue Motel,721114,905-273-5555,www.avenuemotel.ca,1060 Dundas St E,L4Y 2B8,,,43.602658,-79.591273
Bale Sandwich,722512,905-272-6875,,1125 Dundas St E,L4Y 2C4,,UnitNo 4,43.60421,-79.59082
Subway,722512,905-566-4980,www.subway.com,1125 Dundas St E,L4Y 2C4,,UnitNo 9,43.60421,-79.59082
Greek 2 Go,722511,647-701-0889,,1125 Dundas St E,L4Y 2C4,,UnitNo 2,43.60421,-79.59082
Roti Stop,722512,905-306-7684,www.rotistop.com,1125 Dundas St E,L4Y 2C4,,UnitNo 7,43.60421,-79.59082
Island Palace,722512,437-887-2860,,1125 Dundas St E,L4Y 2C4,,UnitNo 12,43.60421,-79.59082
Handaan Filipino Cuisine,722512,905-232-5532,,3008 Novar Rd,L5B 1S4,,,43.57811,-79.61946
Holy Smokez BBQ Sandwiches,722512,647-799-2273,www.holysmokez.com,1133 Dundas St E,L4Y 2C3,,UnitNo 2,43.6043,-79.59023
Roseto Valforte Cultural Center,722512,905-848-9036,,2394 Haines Rd,L4Y 1Y6,,UnitNo 7,43.593318,-79.590765
Monte Carlo Inns Airport Suites,721111,905-564-8500,www.montecarloinns.com,7035 Edwards Blvd,L5T 2H8,,,43.649184,-79.704133
Pho Hung,722511,905-275-8588,,1195 Dundas St E,L4Y 2l5,,,43.605278,-79.588411
Corner by Spoon and Fork,722511,905-803-1100,www.sfcorner.ca,1225 Dundas St E,L4Y 2C5,,UnitNo 14B,43.60635,-79.58829
Vin Bon,722511,905-232-9463,www.vinbonmississaugaeast.ca,1248 Dundas St E,L4Y 2C1,,UnitNo 3,43.60575,-79.58565
Song Cook's,722511,647-454-8000,,1310 Dundas St E,L4Y 2C1,,UnitNo 5,43.60672,-79.58499
Tim Hortons,722512,905-275-6867,www.timhortons.com,1327 Dundas St E,L4Y 2C7,,,43.60847,-79.58598
Pizza Pizza,722512,905-238-1873,www.pizzapizza.ca,1403 Dundas St E,L4X 1L3,,,43.609647,-79.583618
Mandarin,722511,905-502-8000,,87 Matheson Blvd E,L4Z 2Y5,,,43.620558,-79.66863
East Side Mario's,722511,905-273-5818,www.eastsidemarios.com,1488 Dundas St E,L4X 1L4,,,43.611621,-79.58128
Harvey's,722512,905-625-8706,,1505 Dundas St E,L4X 1L3,,,43.61176,-79.581129
Spice & Aroma,722511,905-232-5202,,157 Dundas St E,L5A 1W8,,UnitNo 3B,43.583734,-79.612387
Lé Vu,722511,905-276-5888,,1580 Dundas St E,L4X 1L4,,,43.613831,-79.578906
Beyti Kebab,722512,,,1650 Dundas St E,L4X 2Z3,,UnitNo 1,43.61435,-79.57701
C and Dubbs Hamburgers,722511,905-270-1361,,1706 Dundas St E,L4X 1L7,,UnitNo 1,43.61621,-79.576366
Papa Johnas Pizza,722512,905-273-7272,,1706 Dundas St E,L4X 1L7,,UnitNo 2,43.61621,-79.576366
Mr. Sub,722512,905-625-4166,,1725 Dundas St E,L4X 1L5,,,43.616931,-79.575597
Diamonds Gentlemen's Club,722410,905-270-9985,,1820 Dundas St E,L4X 1L8,,,43.618657,-79.573683
Dragon Palace,722511,905-279-9111,www.mississaugachineserestaurant.ca,1850 Dundas St E,L4X 1L9,,,43.619191,-79.573109
Monte Carlo Inn,721111,905-273-9500,www.montecarloinns.com,1886 Dundas St E,L4X 1L9,,,43.619914,-79.572461
Burrito Boyz,722512,905-279-2699,www.burritoboyz.ca,19 Dundas St E,L5A 1V9,,,43.58092,-79.615638
Fregata Restaurant,722511,905-270-6265,,1900 Dundas St E,L4X 2Z4,,UnitNo Floor 2,43.62013,-79.57163
Fort York Motel,721114,905-277-2524,,1920 Dundas St E,L4X 1L9,,,43.620683,-79.571667
Milan Banquet Hall,722320,905-624-1907,www.milanbanquethall.ca,1989 Dundas St E,L4X 1M1,,UnitNo A,43.621398,-79.570949
Docuserve Etc,722512,905-896-0800,www.docuserveetec.com,20 Dundas St E,L5A 1W2,,UnitNo 2,43.580682,-79.615908
Orbit Restaurant,722511,905-290-7000,www.orbitrestaurant.ca,2025 Dundas St E,L4X 1M2,,UnitNo 3&4,43.622848,-79.569399
Montreal Deli Family Restaurant,722512,905-625-3265,,2055 Dundas St E,L4X 2V9,,,43.622943,-79.569296
Potluck Restaurant ,722512,905-232-6555,,21 Dundas St E,L5A 1V9,,,43.580967,-79.615584
South Creek Donuts & Subs,722512,905-273-7490,,2100 Dundas St E,L4X 1L9,,,43.62434,-79.567812
"Open Cork Eatery & Lounge, The",722511,905-624-9777,www.theopencork.com,2101 Dundas St E,L4X 1M3,,,43.624478,-79.567671
Crystal Grand Banquet Hall and Conference Center,722320,905-277-2800,www.crystalgrand.ca,2110 Dundas St E,L4X 1L9,,UnitNo 4,43.62462,-79.567523
Lviv Castle,722511,416-628-4727,www.lvivcastle.ca,2120 Dundas St E,L4X 1L9,,,43.624932,-79.567198
Krazzy Gyro,722512,905-206-1116,,2121 Dundas St E,L4X 1M3,,UnitNo A,43.624888,-79.567243
Super 5 Inn,721111,905-624-6424,www.super5inn.com,2171 Dundas St E,L4X 1M3,,,43.625784,-79.566277
La Castile Steak House,722511,905-625-1137,www.lacastile.com,2179 Dundas St E,L4X 1M3,,,43.626061,-79.56593
Muddy Duck Restaurant,722511,905-275-9430,www.muddyduck.com,2200 Dundas St E,L4X 2V3,,UnitNo 1&2,43.626061,-79.56593
Bounty Restaurant,722511,,,2206 Dundas St E,L4X 1L9,,,43.626315,-79.565542
Pho Do Thi,722511,905-615-9696,,25 Dundas St E,L5A 1V9,,,43.581063,-79.615475
Pizza Hut,722512,905-277-9797,www.pizzahut.ca,289 Dundas St E,L5A 1X1,,UnitNo 1,43.586409,-79.609313
Szechuan Noodle Bowl,722512,905-270-0068,,400 Dundas St E,L5A 1X5,,UnitNo 101,43.588628,-79.606796
Wow! Korean Restaurant,722511,905-896-2315,,55 Dundas St E,L5A 1W1,,UnitNo 4,43.581727,-79.614715
Montfort Mediterranean Cuisine,722511,905-949-1447,,60 Dundas St E,L5A 1W4,,UnitNo 1,43.581689,-79.61476
K F C,722512,905-949-1095,www.kfc.ca,60 Dundas St E,L5A 1W4,,UnitNo 7,43.581689,-79.61476
Tim Hortons,722512,905-566-4982,www.timhortons.com,799 Dundas St E,L4Y 2B7,,,43.596967,-79.597454
Sikgaek,722512,647-847-1030,,800 Dundas St E,L4Y 2B6,,UnitNo A,43.597042,-79.597372
Thanh Son Tofu,722512,905-268-0705,,888 Dundas St E,L4Y 4G6,,UnitNo D3-B,43.598689,-79.59557
Koai Sushi,722512,647-930-7661,www.koaisushi.com,888 Dundas St E,L4Y 4G6,,UnitNo F4,43.598689,-79.59557
Sushi Omigato,722511,,www.sushiomigato.com,888 Dundas St E,L4Y 4G6,,UnitNo E-1,43.598689,-79.59557
B3t Chi,722512,647-739-3634,,888 Dundas St E,L4Y 4G6,,UnitNo D4-C,43.598689,-79.59557
Nguyet Minh Lo Banh Mi,722512,905-275-0988,,888 Dundas St E,L4Y 4G6,,UnitNo D3-A,43.598689,-79.59557
Blue Lagoon Seafood Master,722511,905-566-9888,www.bluelagoonseafoodmaster.com,888 Dundas St E,L4Y 4G6,,,43.598689,-79.59557
Tsui Xiang Tseun,722512,905-279-9908,,888 Dundas St E,L4Y 4G6,,,43.598689,-79.59557
Wokman's Kitchen,722512,905-270-6785,www.wokmanskitchen.foodpages.ca,888 Dundas St E,L4Y 4G6,,,43.598689,-79.59557
"Best Friend Chinese Restaurant, The",722511,905-848-2010,www.bestfriendrestaurant.com,888 Dundas St E,L4Y 4G6,,,43.598689,-79.59557
Livadia Restaurant and Banquet Hall,722511,905-897-3838,www.livadia.ca,918 Dundas St E,L4Y 4H9,,,43.599313,-79.594894
"D'Ouro, Leao Restaurant Bar",722511,905-566-5326,www.leaodouro.com,920 Dundas St E,L4Y 2B8,,,43.599281,-79.59493
K F C,722512,905-279-3131,www.kfc.ca,965 Dundas St E,L4Y 2B7,,,43.600322,-79.593792
Cosimo's Cheese and Deli Ltd.,722512,905-276-4725,,1051 Dundas St W,L5C 1C3,,,43.55823,-79.64263
Bertos Cuisine,722511,905-232-0203,,1063 Dundas St W,L5C 1C3,,,43.55802,-79.64288
Song's Kitchen,722512,905-848-0888,www.songskitchen.ca,1067 Dundas St W,L5C 1C3,,,43.55792,-79.64297
John Anderson,722512,905-276-8752,,1069 Dundas St W,L5C 1C3,,,43.55788,-79.64302
Pizza Pizza,722512,905-270-5470,www.pizzapizza.ca,1093 Dundas St W,L5C 1C6,,,43.5574,-79.64338
Sultan Xpress,722512,905-361-3999,www.sultanxpress.ca,1100 Dundas St W,L5C 4E7,,UnitNo 5,43.557122,-79.643131
Subway,722512,905-273-4443,www.subway.com,1151 Dundas St W,L5C 1C6,,UnitNo 39,43.55655,-79.64458
"Sammy's Chinese Food, Burgers & Ice Cream",722512,905-277-8772,,1151 Dundas St W,L5C 1C6,,UnitNo 19,43.55655,-79.64458
Pita & Grill,722512,905-566-0140,www.pitaandgrill.com,134 Dundas St W,L5B 1H9,Bldg 1,UnitNo 1,43.577376,-79.619701
Tim Hortons,722512,905-273-7200,www.timhortons.com,144 Dundas St W,L5B 1H9,Bldg 2,UnitNo 4,43.577137,-79.619974
Piatto Ristorante,722511,905-896-9111,www.piatto.ca,1646 Dundas St W,L5C 1E6,,,43.544793,-79.654993
Rogues Ristorante,722511,905-822-2670,www.roguesrestaurant.com,1900 Dundas St W,L5K 1P9,Bldg A,UnitNo 43,43.539628,-79.662967
Erin Mills Pump & Patio,722511,905-916-7867,www.theerinmillspump.com,1900 Dundas St W,L5K 1P9,Bldg E,UnitNo E1,43.539628,-79.662967
"Apricot Tree Ltd., The",722511,905-855-1470,www.apricottreecafe.com,1900 Dundas St W,L5K 1P9,Bldg C,UnitNo 10&19,43.539628,-79.662967
168 Sushi Japan Buffet,722511,905-823-8818,www.168sushibuffet.com,2366 Dundas St W,L5K 1R7,,,43.530153,-79.673621
Miga Korean Restaurant,722511,289-218-6726,www.migabbq.com,2382 Dundas St W,L5K 1R7,,,43.529794,-79.674015
Wendy's,722512,905-855-8953,www.wendys.ca,2400 Dundas St W,L5K 2R8,Bldg 1,,43.528954,-79.674939
Mary Brown's Chicken & Taters Inc.,722512,905-823-3259,,2400 Dundas St W,L5K 2R8,Bldg 2,UnitNo 1,43.528954,-79.674939
Tim Hortons,722512,905-822-0130,www.timhortons.com,2458 Dundas St W,L5K 1R8,Bldg 4,UnitNo 1A,43.527975,-79.676016
Subway,722512,905-822-3664,www.subway.com,2458 Dundas St W,L5K 1R8,,UnitNo 1A,43.527975,-79.676016
Sushi Park,722512,905-855-8842,,2458 Dundas St W,L5K 1R8,,UnitNo 15,43.527975,-79.676016
Mulligan's Pub & Grill (1135981 Ontario Ltd.),722511,905-855-7584,,2458 Dundas St W,L5K 1R8,,UnitNo 16&17,43.527975,-79.676016
Kababsaray Shahyad Take Out & Catering,722512,289-521-0403,www.kababsara-shahyad.com,255 Dundas St W,L5B 3B2,,UnitNo 7A,43.574808,-79.622673
Al-Omda Restaurant and Lounge,722512,905-232-0112,,255 Dundas St W,L5B 3B2,,UnitNo 8,43.574808,-79.622673
Harveys,722512,905-828-2220,www.harveys.ca,2681 Dundas St W,L5K 1R9,,,43.523421,-79.681155
Symposium Cafe,722511,905-820-3100,www.symposiumcafe.com,3055 Dundas St W,L5L 3R8,Bldg 1,UnitNo 14&15,43.521029,-79.683701
J J Q's Billiards and Sports Bar,722410,905-607-2582,www.jjqs.ca,3055 Dundas St W,L5L 3R8,Bldg 1,UnitNo 1,43.521029,-79.683701
Mandarin,722511,905-569-7000,www.mandarinrestaurant.com,3105 Dundas St W,L5L 3R8,Bldg 2,UnitNo 100,43.520816,-79.683925
Bamboo Legend,722511,905-569-3180,www.bamboolegend.ca,3145 Dundas St W,L5L 5V8,,,43.519797,-79.68499
Starbucks,722512,905-608-0633,www.starbucks.ca,3235 Dundas St W,L6J 4Z3,Bldg 2,,43.51837,-79.68723
Bar B Q Tonite,722511,905-268-0088,,35 Dundas St W,L5B 1H2,,,43.57944,-79.617338
Chapli Kabob,722512,905-279-1000,,40 Dundas St W,L5B 1H4,Bldg 2,UnitNo 6,43.579515,-79.617253
Las Delicias,722512,905-232-0060,,59 Dundas St W,L5B 1H7,,,43.578858,-79.617995
Hot Plate,722512,905-848-4100,,69 Dundas St W,L5B 1H7,,,43.578678,-79.618203
Reyan Restaurant,722512,905-848-2615,www.reyan.ca,75 Dundas St W,L5B 1H7,,,43.578567,-79.618329
R K Sweets & Restaurant,722511,905-848-3933,,755 Dundas St W,L5C 3B6,Bldg 1,,43.5637,-79.635652
Pizza Nova,722512,905-848-0000,www.pizzanova.com,755 Dundas St W,L5C 3B6,Bldg 1,UnitNo A2,43.5637,-79.635652
Mr. Sub,722512,905-272-1067,www.mrsub.com,755 Dundas St W,L5C 3B6,Bldg 1,,43.5637,-79.635652
Broast Inn,722512,905-481-1222,www.broastinn.com,77 Dundas St W,L5B 1H7,,,43.578492,-79.618414
Archtop Cafe & Music,722512,905-278-2233,www.archtop.group,109 Lakeshore Rd E,L5G 1E2,,,43.553749,-79.583363
Popeyes,722512,905-997-9229,www.popeyeschicken.ca,3087 Winston Churchill Blvd,L5L 2V8,,UnitNo 2,43.524271,-79.683704
The Saucy Grill Inc.,722511,905-542-9600,www.saucyrestaurant.com,111 Queen St S,L5M 1K7,Bldg 1,UnitNo 1,43.58412,-79.7168
Tim Hortons,722512,905-813-2368,www.timhortons.com,6677 Meadowvale Town Centre Cir,L5N 2R5,,UnitNo 175,43.584038,-79.76058
Mamma D's,722511,905-282-0710,,4544 Eastgate Pky,L4W 3W6,,,43.638897,-79.611086
Hampton Inn,721111,905-564-2122,www.hampton-inn.com/hi-mississauga,7040 Edwards Blvd,L5S 1Z1,,,43.64905,-79.705
Peter's on Eglinton Restaurant & Deli,722511,905-624-1995,www.petersoneglinton.com,1035 Eglinton Ave E,L4W 1K4,,,43.62888,-79.62925
Strates Italian Express,722511,905-624-2000,www.italianexpresstrattoria.com,1151 Eglinton Ave E,L4W 1K6,,UnitNo 4,43.63112,-79.62669
Maple Banquet Hall,722320,905-206-9333,www.maplebanquet.com,1325 Eglinton Ave E,L4W 4L9,,UnitNo 7 to 11,43.634813,-79.621851
Zauq,722511,905-625-7786,www.zauq.ca,1325 Eglinton Ave E,L4W 4L9,,UnitNo 12,43.634813,-79.621851
Pizza Pizza,722512,905-568-1669,www.pizzapizza.ca,295 Eglinton Ave E,L4Z 3K6,Bldg 2,UnitNo 16,43.61358,-79.64616
Coffee Culture,722512,905-813-0330,www.coffeeculture.ca,1220 Eglinton Ave W,L5V 1N3,,,43.580207,-79.682638
Golden Fountain Chinese Restaurant,722511,905-826-6688,,1250 Eglinton Ave W,L5V 1N3,,UnitNo A1 - A5,43.578853,-79.68411
Second Cup,722512,905-820-1961,www.secondcup.com,2200 Eglinton Ave W,L5M 2N1,,UnitNo J,43.560453,-79.704864
Coco,722512,905-232-2750,www.cocosworld.com,30 Eglinton Ave W,L5R 3E7,,UnitNo 6,43.605827,-79.653866
Emerald Chinese Restaurant,722511,905-890-9338,www.emeraldchineserestaurant.com,30 Eglinton Ave W,L5R 3E7,,UnitNo 1,43.605827,-79.653866
Tim Hortons,722512,905-712-0202,www.timhortons.com,30 Eglinton Ave W,L5R 3E7,,UnitNo 16 to 18,43.605827,-79.653866
The Wilcox Gastropub Ltd.,722511,905-568-1122,www.thewilcox.ca,30 Eglinton Ave W,L5R 3E7,,,43.605827,-79.653866
Sam Woo BBQ Restaurant,722511,905-507-3988,,660 Eglinton Ave W,L5R 3V2,,UnitNo 15,43.592486,-79.668821
Pizza Nova,722512,905-890-7677,www.pizzanova.com,660 Eglinton Ave W,L5R 3V2,,UnitNo 17A,43.592486,-79.668821
Udupi Madras Caf ,722511,905-277-0010,www.udupimadrascafe.ca,265 Enfield Pl,L5B 3Y7,Bldg 1,UnitNo R202,43.59099,-79.636414
Seoul House Restaurant,722511,905-848-5556,,265 Enfield Pl,L5B 3Y7,Bldg 1,UnitNo R100,43.59099,-79.636414
Caffe Demetre,722512,905-281-2400,www.caffedemetre.com,285 Enfield Pl,L5B 3Y6,Bldg 2,UnitNo R104,43.590286,-79.635202
&Company Resto Bar,722410,905-808-2112,www.andcompany.ca,295 Enfield Pl,L5B 3E2,Bldg 3,,43.591004,-79.636396
Sandwich Delight,722512,905-670-4911,www.sandwichdelight.ca,1550 Enterprise Rd,L4W 4P4,,UnitNo 128,43.652359,-79.640257
Subway,722512,905-624-8822,www.subway.com,2555 Erin Centre Blvd,L5M 5H1,,UnitNo 6,43.562259,-79.710121
Menchies,722512,905-607-1117,www.menchies.ca,2690 Erin Centre Blvd,L5M 5P5,Bldg 1,UnitNo A3,43.558254,-79.716838
Pizza Pizza,722512,905-828-6444,www.pizzapizza.ca,2690 Erin Centre Blvd,L5M 5P5,Bldg 1,UnitNo A7,43.558254,-79.716838
Tim Hortons,722512,905-858-1400,www.timhortons.com,2991 Erin Centre Blvd,L5M 6B8,,,43.553401,-79.722366
Abbey Road Pub & Patio,722511,905-608-9603,www.abbeyroadpub.ca,3200 Erin Mills Pky,L5L 1W8,,UnitNo 9,43.540501,-79.672704
Popular Pizza,722512,905-820-6569,www.popularpizza.ca,3200 Erin Mills Pky,L5L 1W8,,UnitNo 12,43.540501,-79.672704
Pizza Nova,722512,416-439-0000,www.pizzanova.com,4099 Erin Mills Pky,L5L 3P9,,UnitNo 12,43.549861,-79.688087
Neighbours Coffee,722512,905-820-3237,,4140 Erin Mills Pky,L5L 3R3,Bldg 1,,43.551168,-79.690793
K F C/Taco Bell,722512,905-828-6996,www.kfc.ca,5100 Erin Mills Pky,L5M 4Z5,,UnitNo FC9,43.5605,-79.70971
Subway,722512,905-828-8568,www.subway.com,5100 Erin Mills Pky,L5M 4Z5,,UnitNo FC7,43.5605,-79.70971
Bourbon St. Grill,722512,905-608-8818,,5100 Erin Mills Pky,L5M 4Z5,,UnitNo FC13,43.5605,-79.70971
Thai Express ,722512,905-607-2903,www.thaiexpress.com,5100 Erin Mills Pky,L5M 4Z5,,UnitNo FC4,43.5605,-79.70971
A & W,722512,647-479-4803,www.aw.ca,5100 Erin Mills Pky,L5M 4Z5,,UnitNo FC6,43.5605,-79.70971
Jimmy The Greek,722512,905-828-4646,www.jimmythegreek.com,5100 Erin Mills Pky,L5M 4Z5,,UnitNo FC5,43.5605,-79.70971
Timothy's World Coffee,722512,905-569-6906,www.timothyscafes.com,5100 Erin Mills Pky,L5M 4Z5,,UnitNo H10,43.5605,-79.70971
Tim Horton's,722512,905-858-9555,www.timhortons.com,6405 Erin Mills Pky,L5N 4H4,Bldg A,UnitNo 2,43.586676,-79.742343
Bombay Bhel Indian Cuisine,722512,905-858-6100,www.bombaybhelindiancuisine.com,6415 Erin Mills Pky,L5N 4H4,Bldg B,,43.587493,-79.742129
Pizza Hut,722512,905-858-1898,www.pizzahut.ca,6435 Erin Mills Pky,L5N 4H4,Bldg C,,43.587055,-79.742279
Harvey's,722512,905-858-0809,www.harveys.com,6430 Erin Mills Pky,L5N 3P3,,,43.587125,-79.742477
Select Sandwich,722512,905-629-8989,www.selectsandwich.ca,5090 Explorer Dr,L4W 4T9,,UnitNo 102,43.661535,-79.596598
Druxy's Famous Deli,722512,905-238-5222,www.druxys.com,5580 Explorer Dr,L4W 4Y1,,UnitNo 102,43.659132,-79.611982
Halo Halo,722511,905-282-9233,,1085 Fewster Dr,L4W 1A2,,UnitNo 2,43.627829,-79.623011
Meenakxy Take-Out,722512,905-238-6114,,3419 Fieldgate Dr,L4X 2J4,,,43.62432,-79.58817
Maple Pizza,722512,905-238-3003,,3421 Fieldgate Dr,L4X 2J4,,UnitNo A,43.62438,-79.58846
Karachi Grill,722512,905-602-5555,www.karachigrill.ca,3425 Fieldgate Dr,L4X 2J4,,UnitNo 10,43.62435,-79.58828
Mr. Big's Family Restaurant,722512,905-593-3232,,3476 Glen Erin Dr,L5L 3R4,,UnitNo 6,43.537697,-79.687239
Pizzaville,722512,416-736-3636,www.pizzaville.ca,5636 Glen Erin Dr,L5M 6B1,Bldg 1,UnitNo 7B,43.566294,-79.729359
Subway,722512,905-858-4789,www.subway.com,5636 Glen Erin Dr,L5M 6B1,Bldg 1,UnitNo 2A,43.566294,-79.729359
McDonald's,722512,905-812-7187,www.mcdonalds.ca,5636 Glen Erin Dr,L5M 6B1,Bldg 2,UnitNo 12,43.566294,-79.729359
Pizza Nova,722512,905-616-2949,www.pizzanova.com,6040 Glen Erin Dr,L5N 3M4,,UnitNo 5,43.57498,-79.738672
Subway,722512,905-612-0007,www.subway.com,7205 Goreway Dr,L4T 2T9,,UnitNo 2B-10,43.718806,-79.638786
Caribbean Oasis,722512,905-908-2505,,7125 Goreway Dr,L4T 4H3,,UnitNo 105,43.715998,-79.634934
Pizza Pizza,722512,905-671-1111,www.pizzapizza.ca,7125 Goreway Dr,L4T 2T5,,UnitNo 101,43.715998,-79.634934
Dairy Queen,722512,905-276-2253,www.dairyqueen.com,1248 Dundas St E,L4Y 2C1,,UnitNo 5,43.60575,-79.58565
Gino's Pizza,722512,905-677-8039,www.ginospizza.ca,7205 Goreway Dr,L4T 2T9,,UnitNo 14,43.718806,-79.638786
R Corner Diner Inc.,722511,905-268-0787,,2386 Haines Rd,L4Y 1Y6,,UnitNo 19,43.593258,-79.590683
The Maharaja,722511,905-507-2444,www.themaharaja.ca,4646 Heritage Hills Blvd,L5R 1Y3,,UnitNo 3,43.599454,-79.660061
Bairrada Churrasqueira Grill,722511,905-273-9438,www.bairrada.ca,33 Hillcrest Ave,L5B 1K5,,,43.58219,-79.62175
Pizza Nova,722512,905-439-0000,www.pizzanova.com,1211 Hurontario St,L5G 3H2,Bldg 2,UnitNo D,43.559391,-79.587506
Tim Hortons,722512,905-271-7299,www.timhortons.com,1211 Hurontario St,L5G 3H2,Bldg 2,UnitNo A,43.559391,-79.587506
Palma Pasta Italian Food Shop,722512,905-896-0225,www.palmapasta.com,2325 Hurontario St,L5A 4K4,Bldg 3,UnitNo 15,43.57519,-79.6078
3 For 1 Pizza Wings Ltd.,722512,416-341-0888,,2325 Hurontario St,L5A 4K4,Bldg 2,UnitNo 6,43.57519,-79.6078
Kanda Sushi,722512,905-896-7999,www.kanda-sushi.ca,2325 Hurontario St,L5A 4K4,Bldg 2,UnitNo 8 to 10,43.57519,-79.6078
Federick Chinese Restaurant,722512,905-281-8199,www.federickmississauga.com,2515 Hurontario St,L5A 4C8,,UnitNo 112,43.57928,-79.61425
Popeye's Louisiana Kitchen,722512,905-273-3500,www.popeyeschicken.ca,2515 Hurontario St,L5A 4C8,,UnitNo 101,43.57928,-79.61425
Freddy's Kitchen,722512,905-848-3733,,2515 Hurontario St,L5A 4C8,,UnitNo 109,43.57928,-79.61425
Pho Ha Noi,722511,905-276-7745,,2541 Hurontario St,L5A 2G4,,UnitNo Downstairs,43.579307,-79.614944
Little Caesars,722512,647-885-8710,www.littlecaesars.ca,2550 Hurontario St,L5B 1N5,,UnitNo 6,43.579126,-79.614961
Orchard Family Restaurant,722511,905-279-8220,,2550 Hurontario St,L5B 1N5,,UnitNo 8,43.579126,-79.614961
Charlie's Caribbean Cuisine,722511,905-949-0663,www.charliescarribbeancuisine.com,3055 Hurontario St,L5A 2G9,,,43.581344,-79.617833
The Village,722511,905-848-0444,,3073 Hurontario St,L5A 2G9,,,43.581651,-79.618267
Double Double Pizza & Chicken Wings,722512,905-276-0622,www.doublepizza.com,3095 Hurontario St,L5A 2G9,,UnitNo 55,43.582161,-79.618987
Quik Chik,722512,905-306-7861,www.quikchik.ca,3355 Hurontario St,L5A 4E7,,UnitNo 1&2,43.587269,-79.626245
Wally's Restaurant Hamburger & Steak Place,722512,905-279-0975,,3480 Hurontario St,L5B 1P2,,,43.589433,-79.629549
Novotel Toronto Mississauga,721111,905-896-1000,www.mississaugacentre.hotel,3670 Hurontario St,L5B 1P3,,,43.592658,-79.633976
Second Cup,722512,905-502-8227,www.secondcup.com,4553 Hurontario St,L4Z 3L9,,UnitNo E2,43.605108,-79.6504
Mississauga Marketplace Fish & Chips Seafood Restaurant,722511,905-755-0414,,4555 Hurontario St,L4Z 3M1,,UnitNo C6,43.604827,-79.650014
Bubble Republic,722511,905-712-1288,www.bubblerepublic.ca,4555 Hurontario St,L4Z 3M1,,UnitNo C5,43.604827,-79.650014
Swiss Chalet,722511,905-890-9330,www.swisschalet.com,4555 Hurontario St,L4Z 3M1,,UnitNo C1,43.604827,-79.650014
Hakka Ren,722511,905-568-1818,www.hakkaren.ca,4555 Hurontario St,L4Z 3M1,,UnitNo C2,43.604827,-79.650014
Wangs Kitchen Canada Inc,722511,905-712-4370,www.wangskitchen.ca,4559 Hurontario St,L4Z 3L9,,UnitNo A12,43.605838,-79.651419
Bashu Chinese Restaurant / 1723530 Ontario Inc.,722512,905-568-9988,www.bashuonline.com,4559 Hurontario St,L4Z 3L9,,UnitNo A-7A,43.605838,-79.651419
Harvey's,722512,905-507-0708,www.harveys.ca,4559 Hurontario St,L4Z 3L9,,UnitNo A13,43.605838,-79.651419
Pizza Hut,722512,905-568-8380,www.pizzahut.ca,4559 Hurontario St,L4Z 3L9,,UnitNo A2,43.605838,-79.651419
Saravana Bhavan,722511,905-290-0769,www.saravanabhavan.ca,4559 Hurontario St,L4Z 3L9,,UnitNo A13,43.605838,-79.651419
Kentucky Fried Chicken,722512,905-712-1914,www.kfc.ca,4559 Hurontario St,L4Z 3L9,,UnitNo 7A,43.605838,-79.651419
Bombay Bhel,722511,905-890-7955,www.bombaybhelrestaurant.com,5035 Hurontario St,L4Z 3X7,Bldg 4,UnitNo 14,43.607386,-79.653662
Burger King,722512,905-890-5780,www.burgerking.ca,5645 Hurontario St,L4Z 1S7,,,43.6191,-79.66888
"Chelsea Restaurant, The",722511,905-271-4290,,7 John St S,L5H 2E3,,,43.549229,-79.587679
N G O C Yen Restaurant Limited,722511,905-629-9559,www.ngocyenrestaurant.com,1090 Kamato Rd,L4W 2P3,,UnitNo 17 to 19,43.638917,-79.643816
Culinaria Restaurant,722511,905-890-7330,www.culinaria.ca,5732 Kennedy Rd,L4Z 1T1,,,43.630682,-79.661635
Preet Palace,722320,905-568-1918,www.preetpalace.ca,5835 Kennedy Rd,L4Z 2G3,,,43.633535,-79.663957
Carribean Authentic Restaurant,722512,905-565-0080,www.caribbeanauthenticrestaurant.com,6660 Kennedy Rd,L5T 2M9,,UnitNo 3,43.649201,-79.686414
Cafe D'oro Italian Eatery & Catering Ltd.,722512,905-564-6024,,6660 Kennedy Rd,L5T 2M9,,UnitNo 12&13,43.649201,-79.686414
Subway,722512,905-890-5900,www.subway.com,20 Kingsbridge Garden Cir,L5R 3K7,,UnitNo 3,43.60264,-79.64895
Oasis Convention Centre,722320,905-891-7777,www.oasisconvention.com,1036 Lakeshore Rd E,L5E 1E4,,,43.576974,-79.558704
Roc 'n Doc's,722511,905-891-1754,www.rocndocs.com,105 Lakeshore Rd E,L5G 1E2,,,43.553647,-79.583474
Barb's Roti Shop,722512,905-278-4713,,1181 Lakeshore Rd E,L5E 1G1,,,43.580409,-79.555106
Green Acres Motel,721114,905-278-6910,www.greenacresmotel.ca,1303 Lakeshore Rd E,L5E 1G5,,,43.583165,-79.552191
"Brogue Inn, The",722511,905-278-8444,www.thebrogue.com,136 Lakeshore Rd E,L5G 1E6,,,43.554967,-79.582088
Lotus Island Vietnamese Eatery,722512,905-990-3689,,1381 Lakeshore Rd E,L5E 1G6,,UnitNo 1,43.584759,-79.550481
Lily's Place,722511,905-274-4400,,1381 Lakeshore Rd E,L5E 1G6,,UnitNo 6,43.584759,-79.550481
Wingporium,722512,905-990-4300,www.wingporium.ca,170 Lakeshore Rd E,L5G 1G1,,,43.556874,-79.580028
Thai Signature Restaurant,722511,905-278-7889,www.thaisignature.net,203 Lakeshore Rd E,L5G 1G2,,,43.557924,-79.578912
Social Coffee bean,722512,905-486-0148,,211 Lakeshore Rd E,L5G 1G5,,UnitNo A,43.558526,-79.578281
Lux Cafe,722511,905-990-5455,www.lux-cafe.ca,241 Lakeshore Rd E,L5G 1G8,,,43.559457,-79.577286
Thai House Cuisine 2,722512,905-990-6888,www.portcredit.thaihousecuisine.com,261 Lakeshore Rd E,L5G 1G8,,,43.56,-79.576706
"Great Canadian Pizza Co, The",722512,905-274-1291,www.greatcanadianpizza.ca,278 Lakeshore Rd E,L5G 1H1,,,43.560506,-79.576172
Colossus Greek Taverna,722511,905-271-2853,www.colossusgreektaverna.com,280 Lakeshore Rd E,L5G 1H2,,,43.5607,-79.575964
Aielli Restaurant,722511,905-278-2183,www.aielli.com,284 Lakeshore Rd E,L5G 1H2,,,43.560794,-79.575864
Maranello Cafe,722511,905-278-2184,www.maranellocafe.ca,286 Lakeshore Rd E,L5G 1H2,,UnitNo C,43.560815,-79.575843
Country Fish & Chips,722512,905-278-8201,www.countryfishandchips.ca,293 Lakeshore Rd E,L5G 1H3,,,43.561054,-79.575588
My Secret Kitchen,722320,905-990-2057,,316 Lakeshore Rd E,L5G 1H4,,,43.561872,-79.574717
Thyme Ristorante,722511,905-271-8871,www.thymeristorante.com,347 Lakeshore Rd E,L5G 1H6,,UnitNo 2&3,43.562934,-79.573595
Pizza Pizza,722512,416-967-1111,www.pizzapizza.ca,114 Lakeshore Rd E,L5G 1E4,,UnitNo 1&2,43.55415,-79.58294
Spice Lounge and Tapas,722511,905-891-8463,www.spicelounge.ca,52 Lakeshore Rd E,L5G 1E1,,,43.552345,-79.584901
Eva’s Original Chimneys,722512,416-697-8884,www.originalchimneys.com,53 Lakeshore Rd E,L5G 1C9,,,43.55225,-79.58459
al Mustafa,722512,647-710-8799,www.almustafacatering.com,558 Lakeshore Rd E,L5G 1J3,,,43.56735,-79.56847
Indian Cuisine By The Lake,722512,905-891-3333,www.indiancuisinebythelake.com,56 Lakeshore Rd E,L5G 1E1,,UnitNo A,43.552447,-79.584788
McDonald's,722512,905-891-2800,www.mcdonalds.ca,585 Lakeshore Rd E,L5G 1H9,,UnitNo D,43.568087,-79.568105
Subway,722512,905-274-1169,www.subway.com,645 Lakeshore Rd E,L5G 1J5,,UnitNo 1,43.56969,-79.567
Shore Grill & Grotto,722410,905-271-9777,www.shoregrillandgrotto.ca,67 Lakeshore Rd E,L5G 1C9,,,43.5524,-79.58426
Pizza Pizza,722512,416-967-1010,www.pizzapizza.ca,707 Lakeshore Rd E,L5G 1J7,,,43.57022,-79.56643
Shore Grill & Grotto,722511,416-268-8183,www.shoregrillandgrotto.ca,71 Lakeshore Rd E,L5G 1C9,,,43.55246,-79.58422
"Crooked Cue, The",722511,905-271-7665,www.crookedcue.ca,75 Lakeshore Rd E,L5G 1C9,,,43.55256,-79.58414
Lazeez Shawarma,722512,905-990-6444,,85 Lakeshore Rd E,L5G 1C9,,,43.55271,-79.58395
Second Cup,722512,905-891-8747,www.secondcup.com,91 Lakeshore Rd E,L5G 1E2,,,43.553167,-79.583993
Nick's Famous Shawarmas,722512,905-891-8956,www.nicksshawarmas.ca,939 Lakeshore Rd E,L5E 1E3,,UnitNo B,43.575149,-79.560623
2-4-1 Pizza,722512,416-241-0241,www.241pizza.com,94 Lakeshore Rd E,L5G 1E3,,,43.553304,-79.583844
Raw Aura Organic Cuisine,722512,905-891-2872,www.raw-aura.com,94 Lakeshore Rd E,L5G 1E3,,,43.553304,-79.583844
P & J Hamburgers Restaurant,722512,905-278-9278,,943 Lakeshore Rd E,L5E 1E3,,UnitNo A,43.57535,-79.560411
Dairy Queen,722512,905-822-8352,www.dairyqueen.com,1641 Lakeshore Rd W,L5J 1J4,,,43.51965,-79.62115
Domino’s Pizza,722512,905-855-9000,www.dominos.ca,1684 Lakeshore Rd W,L5J 1J5,Bldg 3,UnitNo 18,43.51823,-79.62103
Mango Rain,722511,905-919-1374,www.mangorain.ca,1714 Lakeshore Rd W,L5J 1J5,,,43.51787,-79.62199
Michael's Back Door Restaurant Inc.,722512,905-822-5751,www.michaelsbackdoor.com,1715 Lakeshore Rd W,L5J 1J4,,,43.51815,-79.62259
Souvlaki Hut,722512,905-823-7775,www.souvlakihut.com,1725 Lakeshore Rd W,L5J 1J4,,,43.51795,-79.62282
Mr. Sub,722512,905-822-5490,www.mrsub.ca,1726 Lakeshore Rd W,L5J 1J5,,,43.51758,-79.62214
Clarkson Mediterranean Bistro,722511,905-916-2283,www.clarksonmediterraneanbistro.com,1731 Lakeshore Rd W,L5J 1J4,,,43.51786,-79.62303
"Clarkson Pump & Patio, The",722511,905-855-9354,www.clarksonpump.com,1744 Lakeshore Rd W,L5J 4N8,,UnitNo 1,43.517253,-79.623167
Tim Hortons,722512,905-855-5068,www.timhortons.com,1785 Lakeshore Rd W,L5J 1J5,,,43.51686,-79.62408
Solstice Restaurant,722511,905-822-1801,www.solsticerestaurant.ca,1801 Lakeshore Rd W,L5J 1J6,,UnitNo 11&12,43.5166,-79.62512
Momiji Japanese Restaurant,722512,905-823-8430,www.momijis.com,1801 Lakeshore Rd W,L5J 1J6,,UnitNo 4&5,43.5166,-79.62512
Clarkson Village Motel,721114,905-822-6110,,1815 Lakeshore Rd W,L5J 1J6,,,43.51611,-79.62491
McDonald's,722512,905-823-6480,www.mcdonalds.ca,1829 Lakeshore Rd W,L5J 1J6,,,43.51626,-79.62571
Capra's Kitchen,722511,905-916-1834,www.capraskitchen.ca,1834 Lakeshore Rd W,L5J 1J7,,UnitNo 1 to 3,43.51532,-79.62454
Clarkson Fish & Chips,722511,905-823-4151,,1848 Lakeshore Rd W,L5J 1J7,,,43.51492,-79.62499
Top Grill Shawarma,722512,905-822-2800,,1900 Lakeshore Rd W,L5J 1J7,,UnitNo 6,43.51368,-79.62645
Marco Polo,722511,905-822-1414,www.marcopolorestobar.com,1971 Lakeshore Rd W,L5J 1J6,,,43.51313,-79.6284
Booster Juice,722512,905-274-0002,www.boosterjuice.com,224 Lakeshore Rd W,L5H 1G6,,,43.546397,-79.591488
Subway,722512,905-278-5033,www.subway.com,252 Lakeshore Rd W,L5H 1G6,,UnitNo 2,43.546395,-79.59149
Swiss Chalet Express,722511,905-891-9299,www.swisschalet.ca,252 Lakeshore Rd W,L5H 1G6,,UnitNo 3,43.546395,-79.59149
Pizza Nostra,722512,905-891-3978,www.pizzanostrainc.com,362 Lakeshore Rd W,L5H 1H3,,,43.542287,-79.595989
2-4-1 Pizza,722512,905-855-1531,www.241pizza.com,2155 Leanne Blvd,L5K 2K8,,UnitNo 102,43.52588,-79.65245
Chopan Grill,722511,905-916-4455,www.chopangrill.com,2155 Leanne Blvd,L5K 2K8,,UnitNo 107,43.52588,-79.65245
Swiss Chalet,722511,905-822-2040,www.swisschalet.ca,2155 Leanne Blvd,L5K 2K8,,UnitNo 106,43.52588,-79.65245
Senor Burrito,722512,905-916-2712,www.senorburrito.ca,2155 Leanne Blvd,L5K 2K8,,UnitNo 104,43.52588,-79.65245
Big Bowl,722511,905-855-8829,,2655 Liruma Rd,L5K 1Y8,,UnitNo 1,43.530422,-79.671836
Oaza Shawarma Plus,722512,905-855-2222,,2645 Liruma Rd,L5K 1Y9,,UnitNo 3,43.530411,-79.671747
Thai and Chinese Restaurant,722512,905-891-8888,,1107 Lorne Park Rd,L5H 3A1,,UnitNo 17,43.531485,-79.612339
Cuda's Tap N Grill,722410,905-274-3318,www.cudastapandgrill.com,1107 Lorne Park Rd,L5H 3A1,,UnitNo 2,43.531485,-79.612339
Skyway Cafo,722512,905-677-2526,,2410 Lucknow Dr,L5S 1V1,,UnitNo 32,43.693937,-79.657435
Murphy's Ice Cream Parlour,722512,905-826-8755,,9 Main St,L5M 1X4,,,43.581409,-79.712516
Shandra's Roti Shop,722512,905-625-7775,www.shandrasrotishop.ca,5030 Maingate Dr,L4W 1N5,,UnitNo 19,43.630253,-79.627305
Gyros Place,722512,905-212-4976,www.gyrosplace.ca,1350 Matheson Blvd E,L4W 4M1,,UnitNo 10B,43.640711,-79.632241
Comfort Inn Airport West Inc.,721111,905-624-6900,www.choicehotels.ca,1500 Matheson Blvd E,L4W 3Z4,,,43.6426,-79.62888
J C's Grill House,722511,905-232-2200,www.jcsgrillhouse.ca,1500 Matheson Blvd E,L4W 3Z4,,,43.6426,-79.62888
La Scala Ristorante,722511,905-629-8686,,2601 Matheson Blvd E,L4W 5A8,,UnitNo 1&2,43.660089,-79.601315
"Lunch Bag, The",722511,905-238-6262,,2601 Matheson Blvd E,L4W 5A8,,UnitNo 32,43.660089,-79.601315
Plaka,722511,905-625-9437,www.plaka.ca,2601 Matheson Blvd E,L4W 5A8,,UnitNo 33,43.660089,-79.601315
Jessie's Food Incorporated,722512,905-890-0268,,450 Matheson Blvd E,L4Z 1R5,,UnitNo 50,43.625238,-79.65655
Watan Kabob,722512,905-712-2221,www.watan-kabob.com,55 Matheson Blvd E,L4Z 2Y5,,,43.620548,-79.668643
Subway,722512,905-306-0015,www.subway.com,325 Central Pky W,L5B 3X9,Bldg 3,UnitNo 50,43.582462,-79.637382
Coffee Time,722512,905-629-8231,,991 Matheson Blvd E,L4W 2V3,,UnitNo 16,43.633163,-79.641942
Milestone's Grill & Bar,722511,905-507-4118,www.milestonesrestaurant.com,730 Matheson Blvd W,L5R 3T2,,,43.608388,-79.690058
"Sandwich Board, The",722512,905-568-2373,,90 Matheson Blvd W,L5R 3R3,,UnitNo 105,43.61777,-79.672599
Wendy's,722512,905-276-7447,www.wendys.ca,3411 Mavis Rd,L5C 1T7,,,43.574519,-79.645089
Tim Hortons,722512,905-272-4545,www.timhortons.com,3411 Mavis Rd,L5C 1T7,,,43.574519,-79.645089
Panera Bread,722512,905-501-1243,www.panerabread.ca,5935 Mavis Rd,L5R 3T7,,UnitNo 2,43.610582,-79.693578
Panda Express,722512,905-507-3555,www.pandaexpress.ca,5985 Mavis Rd,L5R 3T7,,UnitNo 5,43.611639,-79.695025
Second Cup,722512,905-507-9800,www.secondcup.com,5985 Mavis Rd,L5R 3T7,,,43.611639,-79.695025
Popeye's Louisiana Kitchen,722511,905-507-3167,www.popeyes.ca,5985 Mavis Rd,L5R 3T7,,UnitNo C,43.611639,-79.695025
Subway Sandwiches,722512,905-501-8782,www.subway.com,5985 Mavis Rd,L5R 3T7,,UnitNo A-2,43.611639,-79.695025
McDonald's,722512,905-712-4335,www.mcdonalds.ca,5995 Mavis Rd,L5R 3T7,,,43.611113,-79.694305
Delimark Cafes,722512,905-949-9551,www.delimarkcafes.com,1290 Central Pky W,L5C 4R3,,UnitNo 101,43.567841,-79.663438
McAdam Place Restaurant,722511,905-890-0681,,5659 McAdam Rd,L4Z 1N9,,UnitNo B8-B9,43.624624,-79.66507
Swiss Chalet/Harveys,722511,905-507-0838,,5990 McLaughlin Rd,L5R 3X9,,,43.616509,-79.689812
Country Style Donuts,722512,905-712-3650,,6035 McLaughlin Rd,L5R 1B9,,UnitNo 100,43.6174,-79.690809
Good Patti's Deli Diner,722511,905-821-2835,,2500 Meadowpine Blvd,L5N 6C4,,UnitNo 1,43.60377,-79.77631
Union Social Eatery,722511,905-814-1234,www.unionsocial.ca,6986 Financial Dr,L5N 8J4,,UnitNo 6,43.61092,-79.75002
Good Patti's Meeting & Banquet Room,722320,905-821-2835,,2500 Meadowpine Blvd,L5N 6C4,,UnitNo 2,43.60377,-79.77631
Cora's Breakfast & Lunch,722511,905-814-5225,www.chezcora.com,6720 Meadowvale Town Centre Cir,L5N 4B7,,,43.584246,-79.760276
Mr. Sub,722512,905-812-9783,www.mrsub.ca,6740 Meadowvale Town Centre Cir,L5N 4B7,,UnitNo 408,43.58156,-79.760017
Wok This Way,722512,905-567-8866,www.wokthisway.ca,6740 Meadowvale Town Centre Cir,L5N 4B7,,UnitNo 404,43.58156,-79.760017
"Friendly Grill Restaurant & Deli, The",722511,905-795-0623,,1020 Meyerside Dr,L5T 1K7,,UnitNo 3,43.6506,-79.66367
"Cake Collective, The",722330,905-564-8565,www.thecakecollective.com,1021 Meyerside Dr,L5T 1J6,,UnitNo 2,43.6522,-79.66539
Country Style Bistro Deli,722512,905-279-4484,www.countrystyle.com,334 Dundas St E,L5A 1W9,,,43.587368,-79.608222
Pizza Depot Ltd.,722512,905-458-9711,www.pizzadepot.ca,1087 Meyerside Dr,L5T 1M5,,UnitNo 5,43.652723,-79.66263
"Backburner Corp., The",722512,905-795-2876,,1450 Meyerside Dr,L5T 2N5,,UnitNo 104,43.659808,-79.654824
Hesuccess Inc.,722512,905-281-2399,,2500 Hurontario St,L5B 1N4,,UnitNo 11,43.577985,-79.613201
New Midway Restaurant,722511,905-564-5980,www.newmidwayrestaurant.ca,1230 Mid-Way Blvd,L5T 2B8,,UnitNo 100,43.663524,-79.670229
Tim Horton's,722512,905-564-5263,,1420 Mid-Way Blvd,L5T 2S4,,,43.66706,-79.66581
Wendy's,722512,905-564-2373,www.wendys.ca,1420 Mid-Way Blvd,L5T 2S4,,,43.66706,-79.66581
Max's Diner,722511,905-564-3350,,975 Mid-Way Blvd,L5T 2C6,,UnitNo 3A,43.66082,-79.67742
Cafe  De Khan,722512,905-817-5426,www.cafe-de-khan.com,6400 Millcreek Dr,L5N 3E7,,UnitNo 13,43.589654,-79.739337
The Bukamaranga: Bean & Bagel Company,722512,905-812-8777,,6465 Millcreek Dr,L5N 5R3,,UnitNo 105,43.590403,-79.741973
Cohai Banh Cuon,722511,905-507-4458,,2580 Shepard Ave,L5A 4K3,,UnitNo 6,43.58034,-79.61464
Subway,722512,905-567-1925,,6465 Millcreek Dr,L5N 5R6,,UnitNo 130,43.590403,-79.741973
Lucy's Sea Cove & Oyster Bar,722511,905-567-8950,www.lucysseacove.com,6905 Millcreek Dr,L5N 6A3,,UnitNo 7 & 8,43.595429,-79.757535
Ancila's Indian Cuisine,722511,905-593-9982,www.ancilasindiancuisine.com,6905 Millcreek Dr,L5N 6A3,,UnitNo 11,43.595429,-79.757535
Aristotles Steak & Seafood House,722511,905-858-1770,www.aristotlessteakandseafood.com,6905 Millcreek Dr,L5N 6A3,,UnitNo 2,43.595429,-79.757535
Nannu's Pastizzi,722512,905-542-4999,,6981 Millcreek Dr,L5N 6B8,,UnitNo 1,43.596983,-79.760211
Swagat Banquet Hall,722320,905-821-9688,www.swagatbanquethall.com,6991 Millcreek Dr,L5N 6B9,,,43.596911,-79.760025
Kentucky Fried Chicken,722512,905-812-5237,,6277 Mississauga Rd,L5N 1A5,,,43.593558,-79.729848
Pizza Pizza,722512,905-821-3092,www.pizzapizza.ca,6277 Mississauga Rd,L5N 1A5,,UnitNo 5&6,43.593558,-79.729848
Tim Hortons,722512,905-285-0700,www.timhortons.ca,6313 Mississauga Rd,L5N 1A5,,,43.594208,-79.730726
Skyway Jacks,722512,905-821-4055,www.skywayjacks.ca,6461 Mississauga Rd,L5N 1A6,,,43.597289,-79.735036
Burger King,722512,905-821-3464,www.burgerking.ca,6465 Mississauga Rd,L5N 1A6,,,43.597455,-79.735344
Bliss Chinese Cuisine,722512,905-363-1029,www.blisschinesecuisine.com,6485 Mississauga Rd,L5N 1A6,,UnitNo 4,43.597642,-79.735711
St. Louis Wing and Ribs,722511,905-997-9464,www.stlouiswings.com,6485 Mississauga Rd,L5N 1A6,,,43.597642,-79.735711
Gabriel's Restaurant,722511,905-567-5218,www.gabrielsrestaurant.ca,6501 Mississauga Rd,L5N 1A6,,,43.597892,-79.736498
Best Western Hotels & Resorts,721111,905-816-4787,www.bestwestern.com,6557 Mississauga Rd,L5N 1A6,,,43.599025,-79.739044
Sweet Rosie's Cafe,722512,905-826-1171,,6711 Mississauga Rd,L5N 2W3,,UnitNo 110,43.601608,-79.740679
Hilton Missisauga/Meadowvale Hotel & Conference Centre,721111,905-821-1981,www.hiltonmeadowvale.com,6750 Mississauga Rd,L5N 2L3,,,43.602189,-79.741649
Pizza Pizza,722512,905-306-1114,www.pizzapizza.ca,1585 Mississauga Valley Blvd,L5A 3W9,,UnitNo 6,43.591646,-79.627043
Subway,722512,905-232-7701,www.subway.com,1585 Mississauga Valley Blvd,L5A 3W9,,UnitNo 8,43.591646,-79.627043
Joe's Great Pizza,722512,905-816-9111,,6700 Montevideo Rd,L5N 1V1,,UnitNo 4,43.590727,-79.757937
Hopeton Restaurant & Catering,722320,905-916-9200,www.HopetonRestaurantAndCatering.com,6315 Netherhart Rd,L5T 1A2,,,43.668557,-79.643971
Newrest Servair Toronto Corporation,722310,647-478-6413,www.newrest.eu,6350 Netherhart Rd,L5T 1K3,,UnitNo 6 to 10,43.66919,-79.64586
Little Caesars,722512,905-897-7400,www.littlecaesars.ca,1077 North Service Rd,L4Y 1A6,Bldg 2,UnitNo 4,43.59264,-79.573625
Applewood Meats and Grill,722512,905-277-9752,www.applewoodmeatsandgrill.ca,1077 North Service Rd,L4Y 1A6,Bldg 2,UnitNo 11,43.59264,-79.573625
Holiday Inn Express & Suites Toronto-Mississauga,721111,905-855-2000,www.holidayinn.com/mississaugaon,2125 North Sheridan Way,L5K 1A3,,,43.523395,-79.650321
TownePlace Suites by Marriott Missisauga-Airport Corporate Centre,721111,905-238-9600,www.marriott.com/yyzts,5050 Orbitor Dr,L4W 4X2,,,43.656517,-79.599684
Pronto Cafe and Eatery,722512,905-670-9794,www.prontoeatery.ca,980 Pacific Gate,L5T 1Y1,,UnitNo 4&5,43.662024,-79.681619
Berina's Specialty Restaurant & Grill Inc.,722511,905-206-0607,,889 Pantera Dr,L4W 2R9,,UnitNo 1A,43.628907,-79.641282
Viv's Catering & Eatery,722320,905-625-2665,www.vivscatering.com,966 Pantera Dr,L4W 2S1,,UnitNo 9,43.63007,-79.63793
Mr. Stavro's Greek Restaurant,722512,905-812-9696,www.greekstavros.ca,11 Pearl St,L5M 1X1,,,43.580942,-79.713239
Filipino Inihaw Grill,722512,905-812-2788,,1474 Pickwick Dr,L5V 2G2,,UnitNo 4A,43.5926,-79.704145
Moonlight Convention Centre,722320,905-678-2222,www.moonlightconventioncentre.com,6835 Professional Crt,L4V 1X6,,,43.707778,-79.630772
Shawarma Hut,722512,905-286-9495,,17 Queen St N,L5N 6A1,,UnitNo 4A,43.588662,-79.723263
Wing's Chinese Restaurant,722512,905-826-3641,www.wingschinesefood.com,17 Queen St N,L5N 6A1,,UnitNo 1,43.588662,-79.723263
Latin Super Chicken,722512,905-369-0420,,17 Queen St N,L5N 6A1,,UnitNo 6,43.588662,-79.723263
Bobby's Hideaway,722511,905-542-8863,www.bobbyshideaway.com,20 Queen St N,L5N 1A1,,,43.588772,-79.723412
Offside Sports Pub & Grill Ltd.,722410,905-813-7424,www.offsidebar.com,25 Queen St N,L5N 1A2,,,43.589028,-79.723757
Subway,722512,905-812-1917,www.subway.com,115 Queen St S,L5M 1K7,Bldg 3,UnitNo 1,43.58401,-79.7166
Tim Hortons,722512,905-812-1929,www.timhortons.com,120 Queen St S,L5M 1K8,,,43.58346,-79.71682
Mondello Ristorante Inc.,722511,905-819-1727,www.mondelloristorante.ca,127 Queen St S,L5M 1K9,,,43.58371,-79.71577
Enzo's (Two Guys From Italy),722511,905-826-5100,www.enzostwoguysfromitaly.com,128 Queen St S,L5M 1K8,,UnitNo 16&17,43.58279,-79.71702
Queen's Fish & Chips,722512,905-826-4222,www.queenfishandchips.com,131 Queen St S,L5M 1K9,,,43.58343,-79.71571
Andiamo Pasta Plus,722511,905-826-4904,www.andiamopastaplus.com,135 Queen St S,L5M 1K9,,,43.58339,-79.71565
Shree Marutinandan Fast Food Inc c/o Gino’s Pizza,722512,905-858-9444,,136 Queen St S,L5M 1K8,,UnitNo 2,43.58299,-79.71595
Melt Grilled Cheese,722512,905-813-1099,www.meltgrilledcheese.com,154 Queen St S,L5M 2P4,,UnitNo 108,43.582579,-79.714924
"Tea Room, The",722512,905-542-7674,www.thetearoomstreetsville.ca,223 Queen St S,L5M 1L6,,UnitNo 3,43.580758,-79.712471
El Mariachi Tacos,722511,905-997-8333,www.elmariachitacos.ca,235 Queen St S,L5M 1L7,,,43.580489,-79.712106
Burger Legend,722512,905-997-1822,www.burgerlegend.ca,236 Queen St S,L5M 1L5,,,43.580478,-79.712091
Pita Nutso,722512,905-858-6161,www.pitanutso.com,241 Queen St S,L5M 1L7,,UnitNo A,43.580379,-79.711954
Starbucks,722512,905-286-9494,www.starbucks.ca,242 Queen St S,L5M 1L5,,,43.580353,-79.711919
Osmow's Grill,722512,905-826-6021,www.mrosmow.com,251 Queen St S,L5M 1L7,,UnitNo 1,43.580119,-79.711604
"Franklin House, The",722410,905-369-0500,www.thefranklinhouse.ca,263 Queen St S,L5M 1L9,,,43.579762,-79.711102
Border MX,722511,905-813-1992,,277 Queen St S,L5M 1L9,,,43.579436,-79.710658
Jing Thai,722511,905-812-1312,,63 Queen St S,L5M 3S9,,UnitNo 1 to 4,43.58579,-79.71831
Le Treport Wedding & Convention Centre,722320,905-276-7729,www.letreport.com,1075 Queensway E,L4Y 4C1,,UnitNo 17 to 22,43.59685,-79.58388
Boaden Catering Ltd.,722320,905-276-1161,www.boaden.com,505 Queensway E,L5A 4B4,,UnitNo 10 to 12,43.585324,-79.595059
Express Au Lait,722512,647-290-0388,,170 Queensway W,L5B 3A8,,UnitNo 100,43.570583,-79.611532
Subway,722512,905-232-2050,www.subway.com,1891 Rathburn Rd E,L4W 3Z3,,UnitNo 18,43.63591,-79.59642
Pump on Rathburn,722511,905-602-6296,www.pumponrathburn.com,1891 Rathburn Rd E,L4W 3Z3,,UnitNo 16,43.63591,-79.59642
Subway,722512,905-615-8989,www.subway.com,925 Rathburn Rd E,L4W 4C3,,UnitNo C7,43.61585,-79.61707
Eggsmart,722512,905-232-8778,,925 Rathburn Rd E,L4W 4C3,,UnitNo D2,43.61585,-79.61707
New Wing Sun Chinese Restaurant,722511,905-897-2888,www.wingsunchinesefood.com,925 Rathburn Rd E,L4W 4C3,,UnitNo C3,43.61585,-79.61707
Pita Pit,722512,905-232-7482,www.pitapit.ca,925 Rathburn Rd E,L4W 4C3,,UnitNo C4,43.61585,-79.61707
Silva's BBQ,722512,905-270-9393,www.silvasbbq.com,925 Rathburn Rd E,L4W 4C3,,UnitNo C5,43.61585,-79.61707
Starbucks,722512,905-896-7070,www.starbucks.ca,189 Rathburn Rd W,L5B 4C1,,,43.5943,-79.6479
Scaddabush Italian Kitchen & Bar,722511,905-281-1721,www.scaddabush.com,209 Rathburn Rd W,L5B 4C1,,,43.59332,-79.64876
Jack Astor's,722511,905-566-4662,www.jackastors.com,219 Rathburn Rd W,L5B 4C1,,,43.59324,-79.64926
Canyon Creek Steak & Chophouse,722511,905-279-3342,www.canyoncreek.com,299 Rathburn Rd W,L5B 4C1,,,43.59258,-79.64957
Something Sweet 4U,722512,905-306-1616,www.somethinsweet.ca,592 Rathburn Rd W,L5B 3A4,,UnitNo 10,43.584203,-79.653879
Oriental Restaurant,722511,905-828-8183,,900 Rathburn Rd W,L5C 4L3,,UnitNo E4,43.578554,-79.661585
Montecristo Club,722410,289-521-9333,,900 Rathburn Rd W,L5C 4L3,,UnitNo D1,43.578554,-79.661585
Reddafire Bar and Restaurant,722511,905-272-0431,,900 Rathburn Rd W,L5C 4L3,,UnitNo D4,43.578554,-79.661585
Papa Moe's Carribean Cuisine,722512,905-232-0239,,900 Rathburn Rd W,L5C 4L3,,UnitNo D5,43.578554,-79.661585
Amadio's Pizza,722512,905-891-5500,www.amadiospizza.com,360 Revus Ave,L5G 4S4,,UnitNo 6,43.56521,-79.57653
"Perfect Kitchen, The",722512,905-569-1488,,3075 Ridgeway Dr,L5L 5M6,,,43.518498,-79.689901
"Shish Mahal Indian Cuisine Ltd., The",722511,905-820-7711,www.shishmahalcuisine.com,3176 Ridgeway Dr,L5L 5S6,,UnitNo 66,43.51749,-79.69449
Paradise Cafe,722512,905-848-8733,www.paradisecafe.org,4 Robert Speck Pky,L4Z 1S1,,UnitNo 160,43.5972,-79.63536
East Side Mario's,722511,905-502-6600,www.eastsidemarios.com,5855 Rodeo Dr,L5R 3Z2,,,43.60987,-79.69189
Casalinga Ristorante,722511,905-823-2000,www.casalingaristorante.com,2057 Royal Windsor Dr,L5J 1K5,,UnitNo 2,43.51074,-79.6311
Ambiance of India,722511,905-403-9900,www.ambianceofindia.com,2157 Royal Windsor Dr,L5J 1K5,,,43.50861,-79.63318
Wimpy's Diner Mississauga,722511,905-822-2260,www.wimpysdiner.ca,2257 Royal Windsor Dr,L5J 1K5,,,43.5065,-79.63567
Pure Gold,722410,905-822-1525,,2630 Royal Windsor Dr,L5J 1K7,,UnitNo 1st & 2nd Fl,43.49778,-79.64354
Payal Banquet Halls Inc.,722320,905-281-8800,www.payalbanquet.com,3410 Semenyk Crt,L5C 4P8,,UnitNo 1,43.567615,-79.651843
Roma's Hospitality Centre,722320,905-670-7662,www.romashospitality.com,5980 Shawson Dr,L4W 3Z6,,UnitNo 1 to 5,43.64764,-79.65541
Cabral Catering,722320,905-565-0527,www.cabralcatering.com,6033 Shawson Dr,L5T 1H8,,UnitNo 12&14,43.648883,-79.655926
Domino's Pizza,722512,905-270-3030,www.dominos.ca,2560 Shepard Ave,L5A 4E1,Bldg 1,UnitNo 8,43.580352,-79.613622
Myungdong Noodle Shabushabu,722511,905-306-1010,,2560 Shepard Ave,L5A 4E1,Bldg 1,UnitNo 5,43.580352,-79.613622
Bombay Chaat & Dosa,722512,905-949-6600,www.bomaychaat.ca,2580 Shepard Ave,L5A 4K3,,UnitNo 1,43.58034,-79.61464
"Semi Fast Food, Korean & Japanese Food",722511,905-306-1462,,2580 Shepard Ave,L5A 4K3,,UnitNo 8,43.58034,-79.61464
Haze Resto Lounge,722511,905-272-5357,www.hazelounge.ca,4230 Sherwoodtowne Blvd,L4Z 2G6,,UnitNo 101,43.600399,-79.640602
The Valley Bar & Grill,722511,905-232-3433,,680 Silver Creek Blvd,L5A 3Z1,,UnitNo 10&11,43.59547,-79.60281
Pho Mi Saigon Vietnamese-Thai Cuisine,722512,905-281-7177,,680 Silver Creek Blvd,L5A 3Z1,,UnitNo 1&2,43.59547,-79.60281
The X Club,722410,905-602-4954,www.thexclub.com,1625 Sismet Rd,L4W 1V6,,UnitNo 1 to 9,43.642975,-79.624337
Puffin Catering Ltd,722320,905-212-9556,www.puffincatering.com,1635 Sismet Rd,L4W 1W5,,UnitNo 1&2,43.643076,-79.624227
Skymark Deli Inc.,722511,905-625-0964,www.skymarkdeli.com,2630 Skymark Ave,L4W 5A4,,UnitNo 110,43.65898,-79.598069
"Bull Pub & Grill, The",722511,905-212-7711,www.thebullpubandgrill.com,2800 Skymark Ave,L4W 5A6,,UnitNo 25-29,43.663021,-79.59361
McDonald's,722512,905-629-9994,www.mcdonalds.ca,2800 Skymark Ave,L4W 5A6,,,43.663021,-79.59361
Freshly Made Inc.,722320,905-820-9944,www.freshlymade.com,4161 Sladeview Cres,L5L 5R3,,UnitNo 2,43.530512,-79.71916
House Of Pepper,722512,905-238-6738,,1550 South Gateway Rd,L4W 5G6,,UnitNo 1G,43.632553,-79.614712
Dynasty B.B.Q. Restaurant,722512,905-238-0275,,1550 South Gateway Rd,L4W 5G6,,UnitNo 106,43.632553,-79.614712
Short Stop Coffee & Snacks,722512,905-602-7793,,1550 South Gateway Rd,L4W 5G6,,UnitNo 5B,43.632553,-79.614712
Lemongrass Kitchen,722512,905-238-8876,,1550 South Gateway Rd,L4W 5G6,,UnitNo 1C,43.632553,-79.614712
Pizzaville,722512,905-608-0098,www.pizzaville.ca,3405 South Millway,L5L 3R1,,UnitNo 1,43.544917,-79.677218
Manchu Wok,722512,905-270-0880,www.manchuwok.ca,1250 South Service Rd,L5E 1V4,,UnitNo 70,43.594349,-79.570982
Tim Hortons,722512,905-271-0936,www.timhortons.com,1250 South Service Rd,L5E 1V4,,UnitNo 76,43.594349,-79.570982
Thai Express,722512,416-819-0518,www.thaiexpress.com,1250 South Service Rd,L5E 1V4,,UnitNo 73,43.594349,-79.570982
K F C,722512,905-271-6016,,1250 South Service Rd,L5E 1V4,,UnitNo 75,43.594349,-79.570982
Select Grill,722512,905-271-4343,,1250 South Service Rd,L5E 1V4,,UnitNo 72,43.594349,-79.570982
New York Fries,722512,905-278-1781,www.newyorkfries.com,1250 South Service Rd,L5E 1V4,,UnitNo 69,43.594349,-79.570982
Bourbon St. Grill,722512,905-271-2495,,1250 South Service Rd,L5E 1V4,,UnitNo 67,43.594349,-79.570982
Freshly Squeezed,722512,647-924-5112,www.freshlysqueezed.ca,1250 South Service Rd,L5E 1V4,,UnitNo Kiosk,43.594349,-79.570982
Sakura Ichiban Express,722512,905-990-3065,,1250 South Service Rd,L5E 1V4,,UnitNo 84,43.594349,-79.570982
Tim Hortons,722512,905-891-0690,www.timhortons.com,780 South Sheridan Way,L5H 1Z6,,UnitNo P2,43.55004,-79.61609
Renaissance By The Creek,722320,905-238-9666,www.renaissancebythecreek.com,3045 Southcreek Rd,L4X 2X6,,,43.62516,-79.569408
Subway,722512,905-855-1317,www.subway.com,1375 Southdown Rd,L5J 2Z1,,UnitNo 4&5,43.51866,-79.63968
Sunnyside Grill,722512,905-916-8000,www.sunnysidegrill.com,1375 Southdown Rd,L5J 2Z1,,UnitNo 10B,43.51866,-79.63968
Pizza Pizza,722512,905-823-9742,www.pizzapizza.ca,1375 Southdown Rd,L5J 2Z1,,UnitNo 17 to 19,43.51866,-79.63968
Tim Hortons,722512,905-822-3400,www.timhortons.com,1375 Southdown Rd,L5J 2Y9,,,43.518497,-79.639905
Stanfield Family Restaurant Inc.,722511,905-803-0980,,2345 Stanfield Rd,L4Y 3Y3,,UnitNo 101,43.598568,-79.583448
Royal Banquet Hall,722320,905-564-7895,www.royalbanquethall.ca,185 Statesman Dr,L5S 1X4,,,43.652135,-79.707378
Anapilis Christian Community Centre,722320,905-277-1270,www.anapilis.ca,2185 Stavebank Rd,L5C 1T3,,,43.560318,-79.617517
Sushi in the Sky,722512,647-607-5893,,13 Stavebank Rd,L5G 2T3,,,43.552522,-79.58563
Burrito Boyz,722512,905-891-2699,www.burritoboyz.ca,9 Stavebank Rd,L5G 2T3,,,43.552498,-79.585587
Snug Harbour Seafood Bar & Grill,722511,905-274-5000,www.snugharbourrestaurant.com,14 Stavebank Rd S,L5G 2T1,,,43.550354,-79.584035
"Waterside Inn, The",721111,905-891-7770,www.watersideinn.ca,15 Stavebank Rd S,L5G 2T2,,,43.551359,-79.584536
Mississauga Inn and Suite,721111,905-858-8600,www.comfortinnmeadowvale.com,2420 Surveyor Rd,L5N 4E6,,,43.589477,-79.743994
Burrito Boyz,722512,905-567-2699,www.burritoboyz.ca,17 Tannery St,L5M 1V1,,UnitNo 2,43.581416,-79.714899
Il Tartufo Ristorante,722511,905-672-2190,www.iltartufo.ca,7033 Telford Way,L5S 1V4,,UnitNo 8A,43.680603,-79.669762
Signature Culinary Solutions Inc.,722310,905-672-0741,www.signatureculinarysolutions.com,7050 Telford Way,L5S 1V7,,UnitNo 100B,43.680575,-79.669714
The Glenerin Inn & Spa (Shannex RLC Ltd.),721111,905-828-7449,www.glenerininn.com,1695 The Collegeway,L5L 3S7,,,43.54396,-79.66498
3 For 1 Pizza Wings Ltd.,722512,905-275-7536,,3353 The Credit Woodlands,L5C 2K1,,UnitNo 4,43.55934,-79.65784
Mango Mirchi,722512,905-602-7385,www.mangomirchi.com,1521 Trinity Dr,L5T 1P6,,UnitNo 6,43.658553,-79.650673
Panera Bread,722512,905-282-0167,,5625 Timberlea Blvd,L4W 2S4,,,43.63674,-79.64952
Days Inn,721111,905-238-5480,www.daysinmississauga.com,4635 Tomken Rd,L4W 1J9,,,43.62684,-79.62912
La Parmigiana Italian Eatery,722511,905-290-7873,www.laparmigiana.yolasite.com,5484 Tomken Rd,L4W 2Z6,,UnitNo 1,43.63483,-79.64504
Bakhtar Kabab Cuisine,722512,905-670-9944,www.bakhtarkabab.ca,5925 Tomken Rd,L4W 4L8,,UnitNo 1,43.645063,-79.657268
Oliver's Ale House,722512,905-564-2537,www.oliversalehouse.ca,6155 Tomken Rd,L5T 1X3,,UnitNo 1,43.648283,-79.661623
Roma Italian Restaurant,722511,905-670-3278,www.romaitalianrestaurant.net,6350 Tomken Rd,L5T 1Y3,,UnitNo 9&10,43.652945,-79.667862
Subway Sandwiches,722512,905-696-0577,www.subway.ca,7025 Tomken Rd,L5S 1R6,,UnitNo 1,43.666248,-79.685754
Burger King,722512,905-676-1573,www.burgerking.ca,7014 Torbram Rd,L4T 3Y3,,,43.695422,-79.654277
Satkar Palace,722320,905-677-8200,www.satkarpalacebanquethall.com,7089 Torbram Rd,L4T 1G7,,UnitNo 1 to 3,43.696027,-79.655092
Zorro's Steakhouse & Tavern,722511,905-671-1149,www.zorrossteakhouse.com,7171 Torbram Rd,L4T 3W4,,UnitNo 1 to 3,43.69781,-79.657498
Fume Bar & Lounge,722512,905-673-3863,,7195 Torbram Rd,L4T 4G3,,UnitNo 4,43.698327,-79.658192
Million Dollar Restaurant (The Cabaret Group),722410,905-673-2795,,7222 Torbram Rd,L4T 3V2,,UnitNo 1 to 9,43.698903,-79.658984
Torbram Restaurant,722511,905-677-9638,,7270 Torbram Rd,L4T 3Y7,,UnitNo 7,43.699828,-79.660239
Imperial Meats Delicatessen,722511,905-671-0900,www.imperialmeatsdeli.ca/mississauga,7310 Torbram Rd,L4T 3X2,,UnitNo 1,43.701374,-79.662294
Authentic Jamaican Restaurant & Bar,722511,905-673-6737,,7385 Torbram Rd,L4T 3Y9,,UnitNo 16,43.702104,-79.663269
Sheraton Gateway Hotel Toronto Airport,721111,905-672-7000,www.sheraton.com/torontoairport,3 PIA,L5P 1B2,,,43.586162,-79.646215
Caterinas Palace and Restaurant,722320,905-673-9840,www.catarinaspalace.ca,7230 Tranmere Dr,L5S 1L6,,,43.687418,-79.670031
B's Sizzling Kitchen,722511,905-671-2362,www.bsizzling.com,7885 Tranmere Dr,L5S 1V8,,UnitNo 30-32,43.680197,-79.672376
Jopapas Pizza&Wings,722512,905-916-9000,www.jopapaspizza.com,2425 Truscott Dr,L5J 2B4,,UnitNo 18,43.511448,-79.648271
Dairy Queen,722512,905-823-3439,www.dairyqueen.com,2425 Truscott Dr,L5J 2B4,,UnitNo 14,43.511448,-79.648271
Spring Cafe,722512,905-855-1633,,2425 Truscott Dr,L5J 2B4,,UnitNo 19,43.511448,-79.648271
Park Royal Fish & Chips,722512,905-822-1061,www.parkroyalfishandchips.com,2425 Truscott Dr,L5J 2B4,,UnitNo 5A,43.511448,-79.648271
Truscott Italian Bakery and Deli,722512,905-403-9550,,2425 Truscott Dr,L5J 2B4,Bldg 3,,43.511448,-79.648271
Asian King,722512,905-823-8988,www.asiankingrestaurant.webs.com,2425 Truscott Dr,L5J 2B4,,UnitNo 24,43.511448,-79.648271
Gourmet Craft and Catering,722320,416-846-1676,www.gourmetcraftandcatering.com,3105 Unity Dr,L5L 4L3,,,43.537933,-79.707127
Fisherman's Place Fish & Chips,722511,905-820-7697,,3105 Unity Dr,L5L 4L3,,UnitNo 32,43.537933,-79.707127
San Francesco's Foods Restaurant,722512,905-828-4444,,2979 Unity Gate,L5L 3E5,,UnitNo 2,43.540186,-79.704531
Jack Astor's,722511,905-820-4511,www.jackastors.com,3047 Vega Blvd,L5L 5Y3,Bldg 2,,43.515922,-79.689964
Starbucks,722512,905-828-2080,www.starbucks.ca,3050 Vega Blvd,L5L 5X8,Bldg 4,,43.516232,-79.690428
Milestone's Restaurant,722511,905-828-9119,www.milestonesrestaurant.com,3051 Vega Blvd,L5L 5Y3,Bldg 3,,43.515764,-79.689768
Blue Suede Sue's Inc.,722410,905-890-0690,,75 Watline Ave,L4Z 3N6,,UnitNo 141,43.6224,-79.670523
Henry's Fish & Chips,722512,905-277-1250,,833 Westlock Rd,L5C 1K7,,UnitNo 6,43.56669,-79.64232
Ray's Roadhouse & Sportsbar,722410,905-275-3551,,833 Westlock Rd,L5C 1K7,,UnitNo 8 to 10,43.56669,-79.64232
Vito1s Pizza and Wings,722512,905-232-1501,,833 Westlock Rd,L5C 1K7,,UnitNo 4,43.56669,-79.64232
N I N A's Bar & Grill Inc.,722511,905-670-8217,,879 Westport Cres,L5T 1E7,,UnitNo 1,43.649666,-79.656424
Michaelangelo's Italian Food,722512,905-542-8888,,3080 Windwood Dr,L5N 2K5,,UnitNo 4,43.57606,-79.74897
Kentucky Fried Chicken,722512,905-828-0085,www.kfc.ca,3015 Winston Churchill Blvd,L5L 2V7,,UnitNo 7,43.523769,-79.683021
Mr. Sub,722512,905-569-9801,www.mrsub.ca,3015 Winston Churchill Blvd,L5L 2V8,,UnitNo 6,43.523769,-79.683021
Summit Garden Chinese,722511,905-828-6686,www.summitgarden.com,3015 Winston Churchill Blvd,L5L 2V8,,UnitNo 108,43.523769,-79.683021
Little Caesars,722512,905-569-7070,www.littlecaesars.ca,3100 Winston Churchill Blvd,L5L 2V7,Bldg 1,UnitNo 7,43.525028,-79.684856
Hakka Spice,722511,905-606-2086,,3105 Winston Churchill Blvd,L5L 5S3,Bldg 2,UnitNo 4,43.52365,-79.68203
Winners Edge Sports Bar and Grill,722410,905-569-3699,,3105 Winston Churchill Blvd,L5L 5S3,Bldg 2,,43.52365,-79.68203
Dai Ichi Sushi Japanese Restaurant,722512,905-820-8869,www.daiichisushi.com,3105 Winston Churchill Blvd,L5L 5S3,Bldg 2,,43.52365,-79.68203
Radica's Hot & Spicy,722511,905-997-8119,www.radicas.com,3105 Winston Churchill Blvd,L5L 5S3,Bldg 2,UnitNo 3,43.52365,-79.68203
East Tea Can,722511,905-997-7800,www.eastteacan.com,3115 Winston Churchill Blvd,L5L 2W1,Bldg 1,UnitNo 1,43.525106,-79.684766
Domino's Pizza,722512,905-824-0300,www.dominos.ca,6750 Winston Churchill Blvd,L5N 4C4,,UnitNo 108,43.58276,-79.76522
Popeye's Chicken,722512,905-997-9229,www.popeyeschicken.ca,6750 Winston Churchill Blvd,L5N 4C4,,UnitNo 101,43.58276,-79.76522
The Works,722512,905-271-6668,,104 Lakeshore Rd E,L5G 1EG,,,43.55368,-79.5837
Fair Grounds Cafv & Roastery,722512,905-990-6100,www.fairgroundscoffee.ca,1106 Ogden Ave,L5E 2G6,,UnitNo 1,43.578994,-79.561574
Hampton Inn & Suites,721111,905-823-8600,,2085 North Sheridan Way,L5K 2T2,,,43.524402,-79.650266
Holiday Inn & Suites,721111,905-542-2121,www.holidayinn.com/w-mississauga,2565 Argentia Rd,L5N 5V4,,,43.601721,-79.757702
Country Style Donuts / Mr. Sub,722512,647-964-9159,www.countrystyle.com,362 Lakeshore Rd E,L5H 1H6,,,43.563311,-79.573205
Holiday Inn Express & Suites,721111,905-795-1011,www.hiexpress.com,40 Admiral Blvd,L5T 2W1,,,43.644287,-79.701314
Boston Pizza,722511,905-565-6225,www.bostonpizza.com,50 Courtneypark Dr E,L5T 2Y3,,,43.637914,-79.693293
Starbucks,722512,905-502-6850,www.starbucks.ca,6020 Hurontario St,L5R 4B3,,,43.626515,-79.680065
Golden Turtle - Pho Rua Vang Restaurant,722511,905-279-2454,,723 Central Pky W,L5B 4L1,,UnitNo 101,43.575926,-79.645
Second Cup,722512,905-804-0800,www.secondcup.com,727 Central Pky W,L5B 4L1,,,43.574159,-79.647028
Galito's Flame Grilled Chicken,722511,905-896-7373,www.galitoschicken.com,731 Central Pky W,L5B 4L1,,,43.576244,-79.644586
A & W,722512,905-848-8885,www.aw.ca,733 Central Pky W,L5B 4L1,,UnitNo 4,43.575847,-79.645096
"Army Navy Airforce Vetrans in Canada, Unit 262",722320,905-274-3821,www.anaf262.com,765 Third St,L5E 1B8,,,43.57316,-79.566981
Subway Sandwiches,722512,905-795-1617,www.subway.com,90 Courtneypark Dr E,L5T 2Y3,,UnitNo 2,43.637914,-79.693293
McDonald's,722512,905-565-7151,www.mcdonalds.ca,930 Derry Rd E,L5T 2X6,,,43.665065,-79.685339
Sea Star Restaurant,722512,905-282-1288,,1550 South Gateway Rd,L4W 5G6,,UnitNo 1H,43.632553,-79.614712
Arigato,722512,905-238-8294,,1550 South Gateway Rd,L4W 5G6,,UnitNo 1A,43.632553,-79.614712
Jimmy's Fire Pit,722512,905-712-8358,,6020 Hurontario St,L5R 4B3,,,43.626515,-79.680065
"Sandwich Board, The",722512,905-890-9608,www.thesandwichboard.ca,5770 Hurontario St,L5R 3G5,,UnitNo Basement,43.621812,-79.673567
International Sports Bar and Eatery,722511,905-848-0555,www.internationalsportsbar.com,2480 Cawthra Rd,L5A 2X2,,UnitNo 1,43.59214,-79.596518
Caffe Demetre,722512,905-564-7000,www.caffedemetre.com,90 Courtneypark Dr E,L5T 2Y3,,UnitNo 6,43.637914,-79.693293
Astoria Ltd.,722511,905-615-1444,www.astoriashishkebobhouse.com,1970 Dundas St E,L4X 2W7,,UnitNo 1,43.621968,-79.570361
Croatia Restaurant,722512,905-624-4111,,1989 Dundas St E,L4X 1M1,,UnitNo B,43.621398,-79.570949
Meyerside Restaurant & Catering,722511,905-564-2200,,1087 Meyerside Dr,L5T 1M5,,UnitNo 9,43.652723,-79.66263
Presto Presto & Iltartufo,722512,905-672-5698,www.prestopresto.ca,7033 Telford Way,L5S 1V4,,UnitNo 8B,43.680603,-79.669762
Motel 6,721114,905-814-1664,www.motel6.com,2935 Argentia Rd,L5N 8G6,,,43.599451,-79.777154
Skymark Deli,722512,905-625-0964,www.skymarkdeli.com,2680 Skymark Ave,L4W 5L6,,UnitNo 120,43.659648,-79.5973
Chef's Table,722511,905-602-4610,www.mychefstable.ca,5800 Explorer Dr,L4W 5L4,,UnitNo 102,43.656976,-79.615896
Pita & Grill,722512,905-828-7373,www.pitagrill.ca,3145 Dundas St W,L5L 5V8,,,43.519797,-79.68499
Arirang Korean B B Q Restaurant,722511,905-804-1880,,1177 Central Pky W,L5C 4P3,,,43.567051,-79.66125
"Famous Owl of Minerva, The",722511,905-273-7275,,1177 Central Pky W,L5C 4P3,,,43.567051,-79.66125
Gino's Pizza,722512,,www.ginospizza.ca,2157 Royal Windsor Dr,L5J 1K5,,UnitNo 1,43.50861,-79.63318
Subway,722512,905-568-9744,www.subway.com,720 Bristol Rd W,L5R 4A3,,UnitNo 8,43.599583,-79.679497
Little Caesars,722512,905-507-3335,www.littlecaesars.ca,720 Bristol Rd W,L5R 4A3,,UnitNo 7,43.599583,-79.679497
Hinote Sushi Japanese Restaurant,722511,905-502-5520,www.hinotesushi.com,720 Bristol Rd W,L5R 4A3,,UnitNo 4,43.599583,-79.679497
Sky Cafe,722512,416-706-8789,,6500 Silver Dart Dr,L5P 1C3,Bldg C,UnitNo 232A,43.6914,-79.6321
Pho Mi Vietnamese Restaurant,722511,905-568-1889,,4557 Hurontario St,L4Z 3M2,,UnitNo B8,43.605574,-79.651039
Subway,722512,905-785-9046,www.subway.com,6970 Lisgar Dr,L5N 8C8,,UnitNo A1,43.57583,-79.78361
Subway,722512,905-785-6700,www.subway.com,6750 Winston Churchill Blvd,L5N 4C4,,UnitNo 112,43.58276,-79.76522
Cafe Latino,722512,905-949-8447,,3025 Hurontario St,L5A 2H1,,UnitNo 106,43.580883,-79.617182
San Francesco Foods,722512,905-804-1548,www.sanfrancescodundas.com,3045 Clayhill Rd,L5B 4L2,,UnitNo 1,43.570977,-79.628376
Chicken Land,722512,905-820-9999,,3405 Glen Erin Dr,L5L 3S2,,,43.53647,-79.68479
Thai Cuisine Experts,722512,905-919-0063,www.thaicuisineexperts.com,2155 Leanne Blvd,L5K 2K8,,UnitNo 102B,43.52588,-79.65245
Pizza pizza,722512,905-823-9441,www.pizzapizza.ca,2225 Erin Mills Pky,L5K 1T8,,,43.528643,-79.654138
McDonald's,722512,905-403-8112,www.mcdonalds.ca,2225 Erin Mills Pky,L5K 1T8,,,43.528643,-79.654138
Karachi Kitchen,722512,905-625-5445,www.karachikitchen.com,4120 Dixie Rd,L4W 4V8,,UnitNo 3,43.624785,-79.605766
Tim Hortons,722512,905-272-9952,www.timhortons.com,3445 Hurontario St,L5A 2H4,,,43.58881,-79.628399
Tim Hortons,722512,905-624-0652,www.timhortons.com,4011 Dixie Rd,L4W 1M3,,,43.622939,-79.602883
Panera Bread,722512,905-820-1010,www.fmigroup.ca,2575 Eglinton Ave W,L5M 7E1,,,43.557536,-79.708264
Paramount Fine Foods,722511,416-695-8900,www.paramountfinefoods.com,2635 Eglinton Ave W,L5M 7E1,,,43.556422,-79.709446
Tim Hortons,722512,905-828-7722,www.timhortons.com,2655 Eglinton Ave W,L5M 7E1,,,43.556422,-79.709446
McDonald's,722512,905-820-7438,www.mcdonalds.ca,2965 Eglinton Ave W,L5M 3J6,,,43.55041,-79.71746
"Souvlaki Hut 
Famouse Greek Sandwiches",722512,905-891-8999,www.souvlakihut.com,51 Lakeshore Rd E,L5G 1C9,,,43.55221,-79.58463
Avani Bistro & Boutique,722511,905-501-0021,www.avani.ca,801 Matheson Blvd W,L5V 2N6,,UnitNo 1 to 3,43.60737,-79.691196
Wendy's,722512,905-812-5012,www.wendys.ca,885 Britannia Rd W,L5V 2X8,,,43.609924,-79.698298
Fionn MacCool's,722410,905-826-0825,www.maccools.com,825 Britannia Rd W,L5V 2X8,,,43.610277,-79.697894
Airport Bukhara,722511,905-678-7889,www.airportbukhara.com,7168 Airport Rd,L4T 2H2,,,43.707127,-79.647049
Fairfield Inn & Suites by Marriott,721111,905-672-4856,www.marriottfairfieldtoronto.com,3299 Caroga Dr,L4V 1A3,,,43.689283,-79.606751
"Asian Wok ""n"" Roll",722511,905-671-8997,www.asianwoknroll.com,2911 Derry Rd E,L4T 1A6,Bldg 3,,43.703279,-79.642988
Subway,722512,905-625-4940,www.subway.com,3423 Fieldgate Dr,L4X 2J4,,,43.62434,-79.58825
McDonald's,722512,905-564-9836,www.mcdonalds.ca,7050 McLaughlin Rd,L5R 1B6,,,43.636846,-79.717354
Aielli Restaurant,722511,905-278-2183,www.aielli.com,282 Lakeshore Rd E,L5G 1H2,,,43.560749,-79.575913
Calabash Caribbean Cuisine,722511,905-822-4875,www.calabashrestaurants.ca,2155 Leanne Blvd,L5K 2K8,,UnitNo 108,43.52588,-79.65245
Swiss Chalet,722511,905-858-5849,www.swisschalet.com,6430 Erin Mills Pky,L5N 3P3,,,43.587125,-79.742477
Sushi Nana,722512,905-712-9724,,670 Eglinton Ave W,L5R 3V2,,UnitNo 4,43.592561,-79.668739
Traditional Fish and Chips,722512,905-814-9024,www.traditionalfishandchips.ca,17 Queen St N,L5N 6A1,,UnitNo 3,43.588662,-79.723263
Ming Room,722511,905-812-1234,www.mingroom.com,6461 Mississauga Rd,L5N 1A6,,,43.597289,-79.735036
Boston Pizza,722511,905-819-9299,www.bostonpizza.com,6978 Financial Dr,L5N 8J4,,,43.6103,-79.75104
Cocobellas Catering,722320,905-286-0165,www.cocobellascatering.ca,2850 Argentia Rd,L5N 8G4,,UnitNo 2,43.599653,-79.775504
Just Temptations Inc.,722512,905-565-0058,www.justtemptations.com,448 Gibraltar Dr,L5T 2N8,,UnitNo 1&2,43.653214,-79.69519
Daal Roti -,722512,905-696-0055,www.daalroti.ca,25 Watline Ave,L4Z 2Z1,,UnitNo GR15,43.62214,-79.67246
Tim Horton's,722512,905-823-0320,www.timhortons.com,2165 Royal Windsor Dr,L5J 1K5,,,43.50899,-79.63333
Studio 6 Canada ULC,721111,905-502-8897,www.staystudio6.com,60 Britannia Rd E,L4Z 3W7,,,43.627346,-79.67836
Bombay to Go,722511,905-276-7787,www.bombaytogo.ca,755 Dundas St W,L5C 3B6,,,43.5637,-79.635652
Tremendous Chinese Restaurant,722511,905-803-8778,,3550 Wolfedale Rd,L5C 2V6,,,43.573343,-79.650873
I Love Pho 2,722511,905-566-8898,,1248 Dundas St E,L4Y 2C1,,UnitNo 9,43.60575,-79.58565
GT Game Time Eatery any Entertainment,722511,,,1248 Dundas St E,L4Y 2C1,,UnitNo 11 to 13,43.60575,-79.58565
Shahrayar Center Inc.,722320,905-602-5566,www.shahrayarcenterinc.ca,1150 Crestlawn Dr,L4W 1A6,,,43.62935,-79.624039
Subway & N Y Fries,722512,905-629-8208,www.subway.com,1475 Aerowood Dr,L4W 1C2,,UnitNo 2,43.64396,-79.63337
Montana's Cookhouse Saloon,722511,905-206-9811,www.montanas.ca,1495 Aerowood Dr,L4W 1C2,,,43.64415,-79.63317
Kelsey's Original Roadhouse,722511,905-624-8501,www.kelseys.ca,1485 Aerowood Dr,L4W 1C2,,,43.64405,-79.63328
Quiznos,722512,905-282-9101,www.quiznos.ca,5170 Dixie Rd,L4W 1E3,,UnitNo 105,43.639132,-79.625567
Wendy's,722512,905-624-0453,www.wendys.ca,1520 Aimco Blvd,L4W 5K1,,,43.63869,-79.62376
Simply B B Q,722320,905-565-9607,www.simply-bbq.com,1365 Mid-Way Blvd,L5T 2J5,,UnitNo 1&2,43.66663,-79.66748
"Hangar Grill, The",722512,905-673-8646,,2515 Derry Rd E,L4T 1A1,,,43.694752,-79.652642
The Extreme Pita,722511,905-817-0007,www.extremepita.com,6990 Financial Dr,L5N 8J4,,UnitNo 7,43.61105,-79.74926
"Drake & Firkin, The",722511,905-567-9173,www.firkinpubs.com,6982 Financial Dr,L5N 8J4,,UnitNo 101,43.61054,-79.75071
Mr. Sub,722512,905-858-7827,www.mrsub.ca,6974 Financial Dr,L5N 8J4,,UnitNo 2,43.60945,-79.7505
Starbucks,722512,905-542-7477,www.starbucks.ca,6974 Financial Dr,L5N 8J4,,UnitNo 1,43.60945,-79.7505
Swiss Chalet,722511,905-567-8172,,6970 Financial Dr,L5N 8J4,,,43.60944,-79.75057
Tim Horton's,722512,905-858-3911,,6966 Financial Dr,L5N 8J4,,,43.60968,-79.74967
McDonald's,722512,905-824-3728,www.mcdonalds.ca,3155 Argentia Rd,L5N 8E1,,,43.593597,-79.788135
Subway,722512,905-542-9391,www.subway.com,2920 Argentia Rd,L5N 8C5,,,43.59922,-79.77702
Fat Bastard Burrito Co.,722512,905-502-9444,www.fatbastardburrito.ca,6045 Mavis Rd,L5R 4G6,,UnitNo 10,43.612883,-79.696722
Hilton Garden Inn,721111,905-890-9110,www.gardeninn.com,100 Traders Blvd E,L4Z 2H7,,,43.624789,-79.672372
Tim Hortons,722512,905-306-5252,,3 Robert Speck Pky,L4Z 2G5,,UnitNo 150,43.597524,-79.636701
Pretzelmaker/ Mrs. Fields,722512,905-820-2077,,5100 Erin Mills Pky,L5M 4Z5,,UnitNo J11,43.5605,-79.70971
Swiss Chalet Rotisserie & Grill,722511,905-569-8797,www.swisschalet.ca,2975 Eglinton Ave W,L5M 6J3,,,43.55004,-79.71711
Wendy's,722512,905-828-2515,www.wendys.ca,2655 Eglinton Ave W,L5M 7E1,,,43.556422,-79.709446
Moxie's Classic Grill,722511,905-276-6555,www.moxies.ca,100 City Centre Dr,L5B 2C9,,UnitNo D6,43.59333,-79.64223
Pizza Depot,722512,905-673-9711,www.pizzadepot.ca,7171 Goreway Dr,L4T 2T5,,UnitNo 1,43.716882,-79.63612
Subway,722512,905-276-0888,www.subway.com,3065 Mavis Rd,L5C 1T7,,,43.567113,-79.634511
Subway,722512,905-275-8810,,2100 Hurontario St,L5B 1M8,,UnitNo 1,43.570525,-79.602771
Starbucks,722512,905-270-2875,www.starbucks.ca,2100 Hurontario St,L5B 1M8,,UnitNo 4,43.570525,-79.602771
Royal Paan House,722512,905-673-7226,,7136 Airport Rd,L4T 2H1,,,43.706328,-79.645958
New Chinese Express Inc,722512,905-278-8858,,300 Lakeshore Rd W,L5H 1G6,,,43.544585,-79.593497
El Jefe,722511,905-990-5200,www.eljefepc.com,66 Lakeshore Rd E,L5G 1E1,,,43.552619,-79.584597
Sushi Maki,722512,905-271-0517,,645 Lakeshore Rd E,L5G 1J5,,UnitNo 4,43.56969,-79.567
Domino's Pizza,722512,905-891-7878,www.dominos.ca,645 Lakeshore Rd E,L5G 1J5,,UnitNo 5,43.56969,-79.567
Smoke's Poutinerie,722512,905-271-2873,www.smokespoutinerie.com,114 Lakeshore Rd E,L5G 1E4,,UnitNo 4,43.55415,-79.58294
My Olive Oil,722512,905-891-2222,www.myolive.ca,114 Lakeshore Rd E,L5G 1E4,,UnitNo 5,43.55415,-79.58294
Tim Hortons,722512,905-279-1119,www.timhortons.com,4040 Creditview Rd,L5C 4E3,,,43.568939,-79.665376
Bubble Republic,722511,905-803-8288,,4040 Creditview Rd,L5C 4E3,,UnitNo 24,43.568939,-79.665376
Mickey's Pizza,722512,905-822-1411,www.feedyourdragon.com,1900 Lakeshore Rd W,L5J 1J7,,UnitNo 8A,43.51368,-79.62645
Gateway On The Go,722512,647-404-1008,,30 Queen St E,L5G 3B6,,,43.556731,-79.585793
Compass Group Canada,722310,905-828-5245,www.navigator.compass-canada.com,3359 Mississauga Rd,L5L 1C6,South Bldg,,43.54873,-79.66429
Chart Well,722511,905-828-5374,,3359 Mississauga Rd,L5L 1C6,North Bldg,,43.54873,-79.66429
"Blind Duck Pub, The",722410,905-828-5463,www.utmsu.ca,3359 Mississauga Rd,L5L 1C6,,,43.54873,-79.66429
Noodle Me,722511,,,720 Bristol Rd W,L5R 4A3,,UnitNo 2,43.599583,-79.679497
Pizza Nova,722512,905-670-8901,www.pizzanova.com,7235 Bellshire Gate,L5N 7X1,,UnitNo 5,43.621298,-79.743238
Krispy Kreme Doughnuts,722512,905-826-2166,www.krispykreme.ca,5920 Mavis Rd,L5V 2P5,,,43.608375,-79.690821
Tim Hortons,722512,905-542-8945,www.timhortons.com,885 Britannia Rd W,L5V 2X8,,,43.609924,-79.698298
King Pizza,722512,905-890-1888,Www.kingpizza.ca,510 Driftcurrent Dr,L4Z 4B4,,UnitNo 12,43.621002,-79.647965
The Wing Factory,722512,905-568-8883,www.thewingfactory.ca,510 Driftcurrent Dr,L4Z 4B4,,UnitNo 14,43.621002,-79.647965
Pho Mi 289,722511,905-286-1881,,6550 Meadowvale Town Centre Cir,L5N 4B7,,UnitNo 6,43.582737,-79.761452
Burrito Boyz,722512,905-236-2699,www.burritoboyz.ca,6560 Meadowvale Town Centre Cir,L5N 4B7,,UnitNo 5,43.582809,-79.761456
Desi Bar & Grill Ltd.,722511,905-232-6788,www.desi.bar,925 Rathburn Rd E,L4W 4C3,,UnitNo B3,43.61585,-79.61707
Aielli Restaurant,722511,905-278-2183,www.aielli.com,286 Lakeshore Rd E,L5G 1H2,,UnitNo B,43.560815,-79.575843
Marriott - Residence Inn,721111,905-567-2577,www.marriott.com/yyzmm,7005 Century Ave,L5N 7K2,,,43.60211,-79.75232
Courtyard By Marriott,721111,905-567-5566,www.marriott.com,7015 Century Ave,L5N 7K2,,,43.60237,-79.75285
Alf Hana Shawarma Hut,722512,289-997-7665,,6550 Meadowvale Town Centre Cir,L5N 4B7,,UnitNo 5,43.582737,-79.761452
Mr. Sub,722512,905-670-5990,www.mrsub.ca,29 Aventura Crt,L5T 3A1,,UnitNo B1,43.646021,-79.703147
Tim Horton's,722512,905-564-1414,www.timhortons.com,39 Aventura Crt,L5T 3A1,,,43.646021,-79.703147
Sagan Restaurant & Banquet Hall,722320,905-670-5220,www.saganbanquethall.com,7180 Edwards Blvd,L5S 1Z1,,,43.65139,-79.70922
Tim Hortons,722512,905-608-1881,www.timhortons.com,3436 Glen Erin Dr,L5L 3B4,,,43.536931,-79.686275
McDonald's,722512,905-826-0065,www.mcdonalds.ca,6410 Millcreek Dr,L5N 3E7,,,43.589773,-79.739752
Boston Pizza,722511,905-569-0517,,2915 Eglinton Ave W,L5M 6J3,,,43.55099,-79.7161
Turtle Jack's Muskoka Grill,722511,905-362-0927,www.turtlejacks.com,108 Courtneypark Dr E,L5T 2Y3,,,43.638814,-79.692394
"Lunch Lady, The",722310,905-812-5592,www.thelunchlady.ca,6800 Kitimat Rd,L5N 5M1,,UnitNo 14,43.60705,-79.735315
Teriyaki Experience,722511,905-542-9800,www.teriyakiexperience.com,6990 Financial Dr,L5N 8J4,,UnitNo 9,43.61105,-79.74926
Gate Gourmet,722310,905-405-4100,www.gategourmet.com,2498 Britannia Rd E,L5P 1A2,,,43.672276,-79.630113
J.P's Pizzeria,722512,905-567-6669,,5980 Churchill Meadows Blvd,L5M 7M5,,UnitNo 12,43.557713,-79.75571
Subway,722512,905-286-4789,www.subway.com,5602 Tenth Line West,L5M 7L9,,UnitNo 113,43.559287,-79.742351
Lily's Pizza and Pasta,722512,905-990-2676,,1107 Lorne Park Rd,L5H 3A1,,UnitNo 5,43.531485,-79.612339
Tim Hortons,722512,,www.timhortons.com,780 Bancroft Dr,L5V 2Y6,,,43.61665,-79.703083
Tim Hortons,722512,905-565-8819,www.timhortons.com,7030 McLaughlin Rd,L5W 1W7,,,43.636946,-79.717487
Gino's Pizza,722512,905-696-8222,www.ginospizza.ca,735 Twain Ave,L5W 1X1,Bldg B,UnitNo 7,43.637929,-79.727655
Pho Dau Bo,722512,905-812-9878,,1525 Bristol Rd W,L5M 4Z1,,UnitNo 3,43.58612,-79.69855
BarBurrito,722512,905-507-8887,www.barburrito.ca,40 Bristol Rd E,L4Z 3K8,,UnitNo 5,43.61385,-79.66202
Made In Japan Teriyaki,722512,905-567-9927,,815 Britannia Rd W,L5V 2X8,,UnitNo 3,43.610142,-79.698045
Nandos flame grilled chicken,722512,905-567-7059,www.nandoscanada.com,815 Britannia Rd W,L5V 2X8,,UnitNo 3,43.610142,-79.698045
Domino's Pizza,722512,905-755-0596,www.dominos.ca,801 Matheson Blvd W,L5V 2N6,,UnitNo 6,43.60737,-79.691196
Pizzano,722512,905-848-0111,,1125 Dundas St E,L4Y 2C4,,UnitNo 3,43.60421,-79.59082
Booster Juice,722512,905-712-0681,,801 Matheson Blvd W,L5V 2N6,,UnitNo 17,43.60737,-79.691196
Pho Queen City,722511,905-615-8288,www.queencitypho.com,3085 Hurontario St,L5A 4E4,,UnitNo 13 to 15,43.582028,-79.6188
Montana's Restaurant,722511,905-564-7391,www.montanas.ca,60 Courtneypark Dr E,L5T 2Y3,,,43.637914,-79.693293
A & W,722512,905-272-3447,www.awgta.com,1130 Dundas St E,L4Y 2C1,,,43.60395,-79.58921
3 Brewers,722512,289-643-1888,www.the3brewers.ca,5860 Mavis Rd,L5V 3B7,,,43.608822,-79.69144
A & W,722512,647-479-4020,www.awontario.com,5880 Mavis Rd,L5V 3B7,,,43.60897,-79.691644
Delimark Cafes,722512,905-405-9666,www.delimarkcafes.com,5935 Airport Rd,L4V 1W5,,UnitNo 100,43.686174,-79.611031
Kelsey's,722511,905-897-8608,www.kelseys.ca,3970 Grand Park Dr,L5B 4M6,,,43.580488,-79.64715
Midway Invader Inc.,722410,905-565-8004,,6809 Invader Cres,L5T 2B7,,,43.663623,-79.67473
Courtyard Marriott Hotel,721111,905-625-3555,www.courtyardmississaugaairport.com,5050 Creekbank Rd,L4W 5R2,,,43.64185,-79.615233
Residence Inn Marriott,721111,905-602-7777,www.residenceinnmississaugaairport.com,5070 Creekbank Rd,L4W 5R2,,,43.641988,-79.615263
Burger King,722512,905-670-1870,,6010 Dixie Rd,L5T 1A6,,,43.655606,-79.648052
Chorizo Fresh Meat,722512,905-822-6988,www.chorizo.ca,950 Southdown Rd,L5J 2Y4,,,43.510077,-79.628776
Starbucks,722512,905-823-7615,www.starbucks.ca,960 Southdown Rd,L5J 2Y4,,,43.510184,-79.628934
Teriyaki Experience,722512,905-822-1933,www.teriyakiexperience.com,960 Southdown Rd,L5J 2Y4,,,43.510184,-79.628934
Osmow's,722512,905-855-3300,,960 Southdown Rd,L5J 2Y4,,,43.510184,-79.628934
Quiznos Sub,722512,905-855-0782,www.quiznossub.com,960 Southdown Rd,L5J 2Y4,,,43.510184,-79.628934
Philthy Philly's,722512,905-822-9129,www.philthyphillys.com,960 Southdown Rd,L5J 2Y4,,UnitNo C12,43.510184,-79.628934
Urban Open Kitchen,722512,647-214-0023,,2395 Speakman Dr,L5K 1B3,,UnitNo Second Floor,43.518675,-79.660462
Morals Village Hotpot,722511,905-276-6768,www.cqdz.ca,1177 Central Pky W,L5C 4P3,,UnitNo 1&2,43.567051,-79.66125
Eggsmart,722512,905-273-6520,,655 Queensway E,L5A 3X6,,,43.588493,-79.592409
Tim Horton's,722512,905-602-4480,www.timhortons.com,4595 Tomken Rd,L4W 1J9,,,43.62718,-79.62616
RD's Southern BBQ,722511,905-670-2255,www.rdsbbq.com,25 Aventura Crt,L5T 3A1,,UnitNo B,43.646021,-79.703147
Booster Juice,722512,905-232-8877,www.boosterjuice.com,100 City Centre Dr,L5B 2C9,,UnitNo M6,43.59333,-79.64223
Yogen Fruz,722512,647-388-1105,,100 City Centre Dr,L5B 2C9,,UnitNo F4,43.59333,-79.64223
Compass Group Canada (Eurest),722310,905-405-0060,,3111 Convair Dr,L5P 1C2,,,43.67189,-79.59658
Starbucks,722512,416-776-3100,,1 PIA,L5P 1B2,,,43.586162,-79.646215
Sunset Grill,722511,905-569-6009,www.sunsetgrill.ca,2901 Eglinton Ave W,L5M 6J3,,UnitNo 1&2,43.55146,-79.71559
Shoeless Joe's,722511,905-821-0045,www.shoelessjoes.ca,6570 Meadowvale Town Centre Cir,L5N 2R5,,,43.582865,-79.76146
Potluck Restaurant,722512,905-826-2223,,6590 Meadowvale Town Centre Cir,L5N 4B7,,UnitNo 10,43.583037,-79.761453
Tim Hortons,722512,905-286-1408,www.timhortons.com,6600 Meadowvale Town Centre Cir,L5N 4B7,,,43.583123,-79.76144
Pizza Pizza,722512,905-542-2617,www.pizzapizza.ca,6975 Meadowvale Town Centre Cir,L5N 2W7,,UnitNo 10 to 12,43.580909,-79.757703
Thai Express,722512,905-286-9364,www.thaiexpress.com,6590 Meadowvale Town Centre Cir,L5N 4B7,,UnitNo J2,43.583037,-79.761453
Benab Family Restaurant Ltd,722511,905-281-8499,,3085 Hurontario St,L5A 2G9,,UnitNo 17,43.582028,-79.6188
Kusina,722511,905-268-0472,,3024 Hurontario St,L5B 4M4,,UnitNo G2,43.58069,-79.617188
Subway,722512,905-306-7827,www.subway.com,3024 Hurontario St,L5B 4M4,,UnitNo G7,43.58069,-79.617188
Pho Mi Vietnamese Restaurant,722511,905-306-9998,,3920 Grand Park Dr,L5B 4M6,,UnitNo D-1,43.580233,-79.646775
Toshka Grill and Lounge,722511,905-848-4141,,3900 Grand Park Dr,L5B 4M6,,UnitNo E-1,43.580183,-79.646701
Thai Cuisine Experts,722512,905-848-0063,www.thaicuisineexperts.com,3960 Grand Park Dr,L5B 4M6,,UnitNo 2,43.580388,-79.647003
Mario's BBQ,722512,905-270-5060,www.mariosbbq.com,5425 Creditview Rd,L5V 2P3,,UnitNo 13,43.586392,-79.696786
Royal Paan,722512,905-813-0004,www.royalpaan.com,1010 Dream Crest Rd,L5V 3A4,,UnitNo 4,43.591128,-79.68042
Subway,722512,905-755-0040,www.subway.com,5025 Heatherleigh Ave,L5V 2Y7,,UnitNo 1,43.590297,-79.672351
Montana's Restaurant,722511,905-785-3264,www.montanas.ca,3065 Argentia Rd,L5N 8E1,,,43.593903,-79.787711
Tim Hortons,722512,905-569-7688,www.timhortons.com,3060 Artesian Dr,L5M 7P5,,,43.546377,-79.715088
Red Rose Convention Centre,722320,905-565-6650,www.redroseconventioncentre.com,1233 Derry Rd E,L5T 1B6,,,43.670719,-79.679285
Swiss Chalet,722511,905-206-0092,www.swisschalet.ca,1455 Dundas St E,L5X 1L3,,,43.610655,-79.582437
Tim Horton's,722512,905-625-7117,www.timhortons.com,1801 Dundas St E,L5X 1L5,,,43.618258,-79.574212
Homewood Suites by Hilton,721111,905-564-5529,www.torontomississauga.homewoodsuites.com,6430 Edwards Blvd,L5T 2Y3,,,43.636868,-79.688389
The Port House Restaurant & Wine Bar,722511,905-271-0016,www.theporthouse.ca,139 Lakeshore Rd E,L5G 1E5,,,43.554577,-79.582499
Pizza Nova,722512,905-629-8374,,1020 Canadian Pl,L4W 4P1,,,43.626334,-79.627704
Sweets House,722511,905-625-4508,www.elsombrero.ca,4870 Tomken Rd,L4W 1J8,,UnitNo 1,43.62539,-79.63032
Admiral Inn,721111,905-403-9777,www.admiralinn.com,2161 North Sheridan Way,L5K 1A3,,,43.521929,-79.650911
Daylight Grill,722511,905-919-1187,www.daylightgrill.com,980 Southdown Rd,L5J 2Y4,,,43.51019,-79.628945
Pita & Grill,722512,905-364-0364,,29 Aventura Crt,L5T 3A1,,UnitNo C,43.646021,-79.703147
TSB 2000 Cafe / Restaurant ,722512,905-502-8441,www.tsb2000.com,5800 Hurontario St,L5R 4B4,,UnitNo Concourse,43.622179,-79.674062
Five Guys Burgers & Fries,722512,905-507-4141,www.fiveguys.com,6045 Mavis Rd,L5R 4G6,,UnitNo 3,43.612883,-79.696722
Grano Ristorante,722511,905-276-1234,www.granoristorante.com,285 Enfield Pl,L5B 3Y6,Bldg 2,UnitNo R108,43.590286,-79.635202
Gino's Pizza,722512,905-990-4466,www.ginospizza.ca,129 Lakeshore Rd E,L5G 1E5,,UnitNo D,43.554526,-79.582552
Timothy's World Coffee,722512,905-274-7690,www.timothyscafes.com,129 Lakeshore Rd E,L5G 1E5,,UnitNo F,43.554526,-79.582552
Lezzet Shawarma Falafel House,722512,905-212-1211,www.lezzetshawarma.com,4120 Dixie Rd,L4W 4V8,,UnitNo 10,43.624785,-79.605766
Heritage Fish and Chips,722511,905-824-8884,www.heritagefishandchips.com,3221 Derry Rd W,L5N 7L7,,UnitNo 18,43.582762,-79.777653
Zeerah,722512,905-569-7916,www.zeerah.ca,3050 Artesian Dr,L5M 7P5,,UnitNo 16,43.546246,-79.715185
Tim Hortons,722512,905-567-4414,www.timhortons.com,5614 Tenth Line West,L5M 7L9,,,43.559155,-79.74217
Taza Express,722512,905-828-0996,www.tazaxpress.ca,2911 Eglinton Ave W,L5M 6J3,,UnitNo 3,43.55113,-79.71596
The Kakori Indian Restaurant ,722511,905-608-1000,,2911 Eglinton Ave W,L5M 6J3,,UnitNo 2,43.55113,-79.71596
Pizza Pizza,722512,416-967-1111,www.pizzapizza.ca,3960 Grand Park Dr,L5B 4M6,,UnitNo 1,43.580388,-79.647003
Five Guys Burgers & Fries,722512,905-608-8484,www.fiveguys.com,2116 Burnhamthorpe Rd W,L5L 5Z5,Bldg N,UnitNo 15,43.54522,-79.68371
